Cafe_Name,Cafe_Coordinates,Place_Id,Cafe_Types,Rating,Number_Ratings,Vicinity,Borough_Coordinates,lat,lng
Take a Break,"51.55102600000001, 0.1547964",ChIJP5iSZRul2EcRuLlMBSZy-JY,"['cafe', 'food', 'point_of_interest', 'establishment']",4.0,40,"244 Oxlow Lane, Dagenham","51.5607, 0.1557",51.55102600000001,0.1547964
Asda Dagenham Superstore,"51.5301912, 0.1422174",ChIJdwGW-HOl2EcRkRKhL91oI_s,"['supermarket', 'gas_station', 'atm', 'pharmacy', 'cafe', 'grocery_or_supermarket', 'finance', 'clothing_store', 'food', 'health', 'point_of_interest', 'store', 'establishment']",3.6,822,"Merrielands Crescent, Dagenham","51.5607, 0.1557",51.5301912,0.1422174
Becontree Heath Leisure Centre,"51.5609465, 0.1488995",ChIJfRvpP_yk2EcRMHJ8P6PE448,"['gym', 'cafe', 'school', 'food', 'health', 'point_of_interest', 'establishment']",3.6,824,"Althorne Way, Dagenham","51.5607, 0.1557",51.5609465,0.1488995
Harrow Lodge Leisure Centre,"51.5613365, 0.207073",ChIJbz00eCW72EcRv-wkpDkmsGQ,"['cafe', 'gym', 'school', 'general_contractor', 'food', 'health', 'point_of_interest', 'establishment']",3.8,391,"Hornchurch Road, Hornchurch","51.5607, 0.1557",51.5613365,0.207073
Eastbrook Cafe & Restuarant,"51.5508213, 0.1614183",ChIJmSZw6z2l2EcRpS8prTdOqic,"['restaurant', 'meal_delivery', 'meal_takeaway', 'cafe', 'food', 'point_of_interest', 'establishment']",4.3,91,"264 Rainham Road South, Dagenham","51.5607, 0.1557",51.5508213,0.1614183
FIDDLERS CAFE,"51.5603893, 0.1472634",ChIJnSemhv6k2EcR9ybePKhA6Es,"['cafe', 'food', 'point_of_interest', 'establishment']",4.3,97,"686 Becontree Avenue, Dagenham","51.5607, 0.1557",51.5603893,0.1472634
bb's coffee & muffins,"51.5793087, 0.185747",ChIJw0exmLWk2EcRxHSOqVLdhDo,"['cafe', 'food', 'point_of_interest', 'store', 'establishment']",3.9,265,"25-26 The Mercury Shopping Centre, Romford","51.5607, 0.1557",51.5793087,0.185747
The Park Cafe,"51.5845796, 0.1679879",ChIJmxBxcL2k2EcRBPbuxzhEjbs,"['cafe', 'food', 'point_of_interest', 'establishment']",4.4,147,"King Georges Playing Fields Car Park, Eastern Avenue West, Romford","51.5607, 0.1557",51.5845796,0.1679879
Shell,"51.560415, 0.1483637",ChIJI_k0xwGl2EcRAuS_d1XUIm4,"['gas_station', 'car_wash', 'convenience_store', 'meal_delivery', 'cafe', 'restaurant', 'food', 'point_of_interest', 'store', 'establishment']",2.8,33,"Wood Lane, Dagenham","51.5607, 0.1557",51.560415,0.1483637
Morrisons Cafe,"51.560107, 0.148194",ChIJHcUMy_2k2EcRi08StUy8GOQ,"['cafe', 'food', 'point_of_interest', 'establishment']",4.0,234,"Beacontree Heath, Dagenham","51.5607, 0.1557",51.560107,0.148194
bp,"51.5657886, 0.1769919",ChIJJ9Aiktqk2EcRkkktIFPy7Ng,"['gas_station', 'atm', 'cafe', 'finance', 'restaurant', 'food', 'point_of_interest', 'establishment']",1.4,17,"Rush Green Road, Romford","51.5607, 0.1557",51.5657886,0.1769919
Costa Coffee,"51.54631500000001, 0.167304",ChIJVaUoVD2l2EcR5i7ZiZxIamI,"['cafe', 'food', 'point_of_interest', 'store', 'establishment']",4.4,309,"East Business And Technical Park, Drive Thru, Drive Thru, Unit 1C, London, Yew Tree Avenue, Dagenham","51.5607, 0.1557",51.54631500000001,0.167304
Mel's Cafe,"51.57008980000001, 0.1839485",ChIJDbURO8yk2EcRXuerEHrAuxw,"['cafe', 'food', 'point_of_interest', 'establishment']",4.7,220,"Unit C8, Seedbed Centre, Essex","51.5607, 0.1557",51.57008980000001,0.1839485
Patisserie Valerie - Romford,"51.57655380000001, 0.179876",ChIJ5zHF98ik2EcRIHy8nGLOzRc,"['bakery', 'cafe', 'restaurant', 'food', 'point_of_interest', 'store', 'establishment']",3.9,687,"Pod 3 The Brewery, Waterloo Road, Romford","51.5607, 0.1557",51.57655380000001,0.179876
Costa Coffee,"51.577044, 0.179623",ChIJ3ZZSM8ik2EcRb_mKxIpJ1Gc,"['cafe', 'food', 'point_of_interest', 'store', 'establishment']",4.1,481,"Unit 1 The Brewery, Romford","51.5607, 0.1557",51.577044,0.179623
Cafe Chateau,"51.5788527, 0.1796929",ChIJ6d55Nbak2EcRHzo7VFfrkmI,"['cafe', 'food', 'point_of_interest', 'establishment']",4.4,151,"7-9 North Street, Romford","51.5607, 0.1557",51.5788527,0.1796929
Café Shot,"51.57203699999999, 0.1907102",ChIJWZiKoumk2EcR6oiARs03Iis,"['cafe', 'food', 'point_of_interest', 'store', 'establishment']",4.6,113,"78 Brentwood Road, Romford","51.5607, 0.1557",51.57203699999999,0.1907102
Costa Coffee,"51.5677842, 0.117121",ChIJ95BU_kek2EcRjE6XVfHFYXw,"['cafe', 'food', 'point_of_interest', 'store', 'establishment']",4.2,565,"Unit 2A, Goodmayes Retail Park, High Road, Romford","51.5607, 0.1557",51.5677842,0.117121
Tea Pot Cafe Romford,"51.57987490000001, 0.1822641",ChIJ9cyXebak2EcRJeRja8SMOa0,"['cafe', 'food', 'point_of_interest', 'establishment']",4.2,91,"43A Market Place, Romford","51.5607, 0.1557",51.57987490000001,0.1822641
Caffe Della Continental,"51.57929710000001, 0.1852055",ChIJc_JIoLWk2EcR58mbBv-WHrM,"['cafe', 'restaurant', 'food', 'point_of_interest', 'store', 'establishment']",4.0,235,"unit 36&37, Mercury Shopping Centre, Mercury Gardens, Romford","51.5607, 0.1557",51.57929710000001,0.1852055
bp,"51.6008685, -0.1750689",ChIJTYFDde8ZdkgR9KCXadpVz18,"['gas_station', 'atm', 'convenience_store', 'cafe', 'finance', 'point_of_interest', 'food', 'store', 'establishment']",3.9,49,"407 High Road, London","51.6252, -0.1517",51.6008685,-0.1750689
artsdepot,"51.61297440000001, -0.1768618",ChIJB_gqY-8ZdkgRU6aKu6Fdqfk,"['art_gallery', 'cafe', 'point_of_interest', 'food', 'establishment']",4.5,988,"5 Nether Street, London","51.6252, -0.1517",51.61297440000001,-0.1768618
"New River Sport, Tennis & Fitness","51.6046932, -0.09984350000000003",ChIJ_els_lMZdkgRSSLrKRSAxxY,"['cafe', 'bar', 'gym', 'health', 'point_of_interest', 'food', 'establishment']",3.9,151,"White Hart Lane, London","51.6252, -0.1517",51.6046932,-0.0998435
Sable D'Or,"51.5916559, -0.1430828",ChIJe8io5ywadkgRuYAsxazLI88,"['cafe', 'point_of_interest', 'food', 'store', 'establishment']",4.1,206,"249 Muswell Hill Broadway, London","51.6252, -0.1517",51.5916559,-0.1430828
Costa Coffee,"51.6309277, -0.1753933",ChIJ4Y0CjM8ZdkgR-S2eowdOLWE,"['cafe', 'point_of_interest', 'food', 'store', 'establishment']",3.9,288,"1287 High Road, London","51.6252, -0.1517",51.6309277,-0.1753933
Costa Coffee,"51.58895769999999, -0.1637612",ChIJacjKtiIadkgRfU5V88DMpew,"['cafe', 'point_of_interest', 'food', 'store', 'establishment']",4.0,285,"62-64 High Road, London","51.6252, -0.1517",51.58895769999999,-0.1637612
Costa Coffee,"51.5914856, -0.1424424",ChIJOUm63iwadkgRwG_lEUctXlo,"['cafe', 'point_of_interest', 'food', 'store', 'establishment']",4.1,314,"376 Muswell Hill Broadway, London","51.6252, -0.1517",51.5914856,-0.1424424
Costa Coffee,"51.607269, -0.157001",ChIJH_fo_o4ZdkgRHJ1nb4BaGOQ,"['cafe', 'point_of_interest', 'food', 'store', 'establishment']",4.0,42,"Coppetts Centre, North Circular Road, London","51.6252, -0.1517",51.607269,-0.157001
Oak Caffe,"51.6299675, -0.174411",ChIJwauucMUZdkgRz414hwIbOfs,"['cafe', 'restaurant', 'point_of_interest', 'food', 'store', 'establishment']",4.5,484,"1 Oakleigh Road North, London","51.6252, -0.1517",51.6299675,-0.174411
Cafe Brunello's,"51.6311784, -0.0963743",ChIJl8UkZS0ZdkgRWpC9V9_jxyQ,"['cafe', 'point_of_interest', 'food', 'establishment']",4.7,198,"729 Green Lanes, London","51.6252, -0.1517",51.6311784,-0.0963743
Aroma Patisserie,"51.62220569999999, -0.1050254",ChIJlY7w3UQZdkgRaE1gxX-VUIA,"['bakery', 'cafe', 'point_of_interest', 'food', 'store', 'establishment']",4.6,441,"424-426 Green Lanes, London","51.6252, -0.1517",51.62220569999999,-0.1050254
Sunshine Garden Cafe,"51.64990269999999, -0.171376",ChIJo4ajzTAYdkgRn_gi8BQlMFM,"['cafe', 'restaurant', 'point_of_interest', 'food', 'establishment']",4.2,42,"41 East Barnet Road, Barnet","51.6252, -0.1517",51.64990269999999,-0.171376
Vero Caffe,"51.61498559999999, -0.1909997",ChIJBRutLV8XdkgRnRZvEHzi_H0,"['cafe', 'point_of_interest', 'food', 'establishment']",4.2,403,"16 Sussex Ring, London","51.6252, -0.1517",51.61498559999999,-0.1909997
Em's Coffee,"51.6322231, -0.1752574",ChIJ04O-vs8ZdkgRXhviichG68M,"['cafe', 'restaurant', 'point_of_interest', 'food', 'store', 'establishment']",4.2,368,"1336 High Road, London","51.6252, -0.1517",51.6322231,-0.1752574
Xpress Coffee,"51.6377146, -0.1663405",ChIJWzl2D8sZdkgRn6OTL_F81hg,"['cafe', 'point_of_interest', 'food', 'store', 'establishment']",4.8,5,"Oakliegh Park Station,Platform, 1 Netherlands Road, Barnet","51.6252, -0.1517",51.6377146,-0.1663405
My Time Delicatessen,"51.6194532, -0.1073493",ChIJY8nh7UcZdkgRGG-KBAMnM1w,"['cafe', 'restaurant', 'point_of_interest', 'food', 'store', 'establishment']",4.7,110,"375 Green Lanes, London","51.6252, -0.1517",51.6194532,-0.1073493
Cibo Bar Cafeteria,"51.6237631, -0.1227088",ChIJaakfbBQZdkgRWdTh_OG_GT8,"['cafe', 'point_of_interest', 'food', 'establishment']",4.5,149,"28 Cannon Hill, London","51.6252, -0.1517",51.6237631,-0.1227088
The Cookie,"51.6474255, -0.1321265",ChIJTy0AbfsYdkgRAuDOqHjfIdw,"['cafe', 'restaurant', 'point_of_interest', 'food', 'establishment']",4.7,43,"123 Bramley Road, London","51.6252, -0.1517",51.6474255,-0.1321265
Pots of Art,"51.6261468, -0.163929",ChIJKRW7ubgZdkgRkVY2INArxxo,"['cafe', 'point_of_interest', 'food', 'establishment']",4.0,2,"Tudor Grove, Church Crescent, London","51.6252, -0.1517",51.6261468,-0.163929
Oak Hill Park Cafe,"51.63460560000001, -0.1526013",ChIJq2c410oYdkgREmElQfJjAmo,"['cafe', 'meal_takeaway', 'restaurant', 'point_of_interest', 'food', 'establishment']",4.1,405,"Oak Hill Park Cafe, Parkside Gardens, Barnet","51.6252, -0.1517",51.63460560000001,-0.1526013
bp,"51.47278499999999, 0.1625922",ChIJDSRYM7Wv2EcR_XRCsanQQLo,"['gas_station', 'atm', 'car_wash', 'cafe', 'finance', 'food', 'point_of_interest', 'establishment']",2.6,63,"295-313 Bexley Road, Erith","51.4549, 0.1505",51.47278499999999,0.1625922
Costa Coffee,"51.45598, 0.145861",ChIJNfJno16u2EcRJjvruvEL094,"['cafe', 'store', 'food', 'point_of_interest', 'establishment']",4.0,456,"Broadway Shopping Centre, Central Square, Bexleyheath","51.4549, 0.1505",51.45598,0.145861
Asda Living Dartford,"51.44789999999999, 0.21552",ChIJ9RXQG5Sx2EcRWTG7YWpWpYc,"['home_goods_store', 'cafe', 'clothing_store', 'store', 'food', 'point_of_interest', 'establishment']",4.2,1243,"Unit 4, Prospect Place, Dartford","51.4549, 0.1505",51.44789999999999,0.21552
Village Cafe,"51.44163959999999, 0.1500741",ChIJkwDoLWWu2EcR7ajmLxyDRzQ,"['cafe', 'food', 'point_of_interest', 'establishment']",4.5,115,"70 Bexley High Street, Bexley","51.4549, 0.1505",51.44163959999999,0.1500741
Munchies,"51.4735257, 0.162357",ChIJ6-KsMLWv2EcRGwmnwCigq8w,"['cafe', 'store', 'food', 'point_of_interest', 'establishment']",4.5,197,"228 Bexley Road, Erith","51.4549, 0.1505",51.4735257,0.162357
Kenny's Cafe,"51.453291, 0.176789",ChIJ-9mlxyKu2EcRVHxnICHG6GI,"['cafe', 'food', 'point_of_interest', 'establishment']",4.5,85,"74 Crayford High Street, Dartford","51.4549, 0.1505",51.453291,0.176789
Koffi Pot,"51.46250209999999, 0.108359",ChIJ04VP1dqu2EcRajwudSrobUY,"['cafe', 'food', 'point_of_interest', 'establishment']",4.3,190,"107 Welling High Street, Welling","51.4549, 0.1505",51.46250209999999,0.108359
Mooboo Bexleyheath,"51.4555653, 0.1474154",ChIJ69rfpV6u2EcReSrHDYdB3rI,"['cafe', 'food', 'point_of_interest', 'establishment']",4.5,71,"11, The Mall, Broadway Shopping Centre, Bexleyheath","51.4549, 0.1505",51.4555653,0.1474154
Caffè Nero,"51.4565659, 0.1441646",ChIJFaDu0F6u2EcRDnSTuG_K3VQ,"['cafe', 'store', 'food', 'point_of_interest', 'establishment']",4.3,347,"115 Broadway, Bexleyheath","51.4549, 0.1505",51.4565659,0.1441646
Creams Cafe Bexleyheath,"51.4568521, 0.1420772",ChIJO6w2Sl-u2EcRL44zoSzYINc,"['bakery', 'meal_takeaway', 'cafe', 'store', 'restaurant', 'food', 'point_of_interest', 'establishment']",3.6,508,"143 Broadway, Bexleyheath","51.4549, 0.1505",51.4568521,0.1420772
Chinchins - Cafe Restaurant Bar,"51.4570398, 0.1407846",ChIJb8EVVV-u2EcRPOfev6EhciU,"['cafe', 'bar', 'restaurant', 'food', 'point_of_interest', 'establishment']",4.7,462,"171 Broadway, London, Bexleyheath","51.4549, 0.1505",51.4570398,0.1407846
Vintage Lindy Lou,"51.45218149999999, 0.1791639",ChIJzfaBhiKu2EcRkkbChv7B4iU,"['cafe', 'food', 'point_of_interest', 'establishment']",4.7,142,"The Willows, Waterside, Dartford","51.4549, 0.1505",51.45218149999999,0.1791639
Costa Coffee,"51.45104199999999, 0.180797",ChIJ__f-Uh-u2EcR-WcZuuKGAFE,"['cafe', 'store', 'food', 'point_of_interest', 'establishment']",4.3,172,"Unit 3, Next, TOWER RETAIL PARK, Crayford Road, Dartford","51.4549, 0.1505",51.45104199999999,0.180797
Shell,"51.44774869999999, 0.1167906",ChIJFxTEAr6u2EcRXddnz0-kNG0,"['gas_station', 'convenience_store', 'car_wash', 'meal_delivery', 'cafe', 'store', 'food', 'point_of_interest', 'establishment']",4.1,100,"510 Blackfen Road, Sidcup","51.4549, 0.1505",51.44774869999999,0.1167906
Luso Flavour Cafe & Deli,"51.4618917, 0.1132583",ChIJKXGZMMOu2EcRgfM51IDaxlg,"['cafe', 'food', 'point_of_interest', 'establishment']",4.8,172,"9 Welling High Street, Welling","51.4549, 0.1505",51.4618917,0.1132583
Costa Coffee,"51.46199, 0.11016",ChIJ3aoEt8Su2EcRaZU3vcOdrO0,"['cafe', 'store', 'food', 'point_of_interest', 'establishment']",4.2,115,"28, Embassy Court, Welling","51.4549, 0.1505",51.46199,0.11016
Cafe Deluxe,"51.4627016, 0.107036",ChIJoxv-tdqu2EcRAzVx5TEg1tU,"['cafe', 'food', 'point_of_interest', 'establishment']",4.7,199,"6 Bellegrove Road, Welling","51.4549, 0.1505",51.4627016,0.107036
Costa Coffee,"51.4503902, 0.1034904",ChIJb90Tubeu2EcRYIMvHOeDJdc,"['cafe', 'store', 'food', 'point_of_interest', 'establishment']",4.2,212,"19 Blackfen Road, Sidcup","51.4549, 0.1505",51.4503902,0.1034904
Costa Coffee,"51.480319, 0.1805111",ChIJSW9qE7iv2EcR0P5LDTdT3EM,"['cafe', 'store', 'food', 'point_of_interest', 'establishment']",4.3,309,"Unit 6, Riverside Shopping Centre, 21A Town Square, Erith","51.4549, 0.1505",51.480319,0.1805111
Cafe Concerto Ltd,"51.433904, 0.104067",ChIJG4Fz7qiu2EcRMJg2HFHaJKI,"['cafe', 'food', 'point_of_interest', 'establishment']",3.8,19,"Sidcup Railway Station, Sidcup","51.4549, 0.1505",51.433904,0.104067
Ace Cafe London,"51.5413119, -0.277825",ChIJP1sJ24sRdkgRub025F6UBxU,"['cafe', 'restaurant', 'food', 'point_of_interest', 'establishment']",4.5,5503,"Ace Corner, North Circular Road, London","51.5588, -0.2817",51.5413119,-0.277825
Abbey Point Hotel,"51.5349659, -0.2754636",ChIJvdO_R_MRdkgRztxcqEwrrtQ,"['cafe', 'lodging', 'food', 'point_of_interest', 'establishment']",4.3,400,"300-302 Twyford Abbey Road, London","51.5588, -0.2817",51.5349659,-0.2754636
Asda Park Royal Superstore,"51.52781, -0.2698899999999999",ChIJb_iYL-4RdkgRfILoKI4ebYM,"['supermarket', 'atm', 'gas_station', 'cafe', 'pharmacy', 'clothing_store', 'grocery_or_supermarket', 'finance', 'food', 'store', 'health', 'point_of_interest', 'establishment']",3.5,1045,"2-20 Western Road, London","51.5588, -0.2817",51.52781,-0.2698899999999999
Asda Wembley Superstore,"51.56479119999999, -0.2755593",ChIJRRYSm3oRdkgRS-5hMF5b8Ew,"['supermarket', 'atm', 'gas_station', 'cafe', 'pharmacy', 'clothing_store', 'grocery_or_supermarket', 'finance', 'food', 'store', 'health', 'point_of_interest', 'establishment']",3.7,1205,"Forty Lane, Wembley","51.5588, -0.2817",51.56479119999999,-0.2755593
Caffè Nero,"51.5811242, -0.3352072",ChIJBWXObnQTdkgRsYxXc4yemBQ,"['cafe', 'food', 'store', 'point_of_interest', 'establishment']",4.2,468,"27 St Anns Road, Harrow","51.5588, -0.2817",51.5811242,-0.3352072
Patisserie Patchi,"51.5326775, -0.2750395",ChIJg4wor8IRdkgRgAwqnD6Ri8g,"['bakery', 'cafe', 'restaurant', 'food', 'store', 'point_of_interest', 'establishment']",4.1,2728,"28 Abbey Road, London","51.5588, -0.2817",51.5326775,-0.2750395
Amouage Lounge,"51.5532854, -0.2110543",ChIJmQH8mWAQdkgRJ0HPM_T9Q6E,"['cafe', 'bakery', 'night_club', 'bar', 'food', 'store', 'point_of_interest', 'establishment']",3.9,152,"32-34 Cricklewood Broadway, London","51.5588, -0.2817",51.5532854,-0.2110543
New Atlas Cafe,"51.53942640000001, -0.2527655999999999",ChIJ8W0wI7kRdkgRW6-1ys1qqyk,"['cafe', 'restaurant', 'food', 'point_of_interest', 'establishment']",4.7,115,"New, Atlas Cafe, 69-71 Craven Park Road, London","51.5588, -0.2817",51.53942640000001,-0.2527655999999999
Norman’s Cafe,"51.5830734, -0.2633904",ChIJpx1MM0ERdkgRcu4svZ7f78Q,"['cafe', 'food', 'point_of_interest', 'establishment']",4.4,62,"263 Hool Close, London","51.5588, -0.2817",51.5830734,-0.2633904
Workmans Cafe London,"51.5492159, -0.2421223",ChIJnXFthq4RdkgRl3ZrMaca4iM,"['cafe', 'food', 'point_of_interest', 'establishment']",4.5,109,"368 High Road, London","51.5588, -0.2817",51.5492159,-0.2421223
Starbucks Coffee,"51.5587657, -0.2819752",ChIJ9zXBzn8RdkgRY_Q5iQzWOVo,"['cafe', 'restaurant', 'food', 'store', 'point_of_interest', 'establishment']",3.9,444,"Engineers Way, Wembley","51.5588, -0.2817",51.5587657,-0.2819752
Treatz Dessert Parlour Wembley,"51.557095, -0.2826485",ChIJEW0d_H8RdkgR5DV-jXPeitQ,"['bakery', 'cafe', 'restaurant', 'food', 'store', 'point_of_interest', 'establishment']",4.0,582,"Designer Outlet, Unit 5a London, Wembley Park Boulevard, Wembley","51.5588, -0.2817",51.557095,-0.2826485
Chaboba,"51.5574209, -0.2842227000000001",ChIJS2ixB4ARdkgRU_EEtQRK1fc,"['cafe', 'food', 'point_of_interest', 'establishment']",4.2,341,"20 Wembley Park Boulevard, London","51.5588, -0.2817",51.5574209,-0.2842227000000001
Costa Coffee,"51.55669, -0.28339",ChIJ-aPOTu8TdkgRRsfsbQRa5GQ,"['cafe', 'food', 'store', 'point_of_interest', 'establishment']",4.2,769,"Unit 49, London Designer Outlet, Wembley Park Boulevard, Wembley","51.5588, -0.2817",51.55669,-0.28339
Costa Coffee,"51.561082, -0.2791689999999999",ChIJJdEFiX4RdkgRisKEG44Brw8,"['cafe', 'food', 'store', 'point_of_interest', 'establishment']",4.2,316,"7 Olympic Way, Wembley, London","51.5588, -0.2817",51.561082,-0.2791689999999999
Costa Coffee,"51.564592, -0.277879",ChIJz-xQYnwRdkgRcflYuM4YWR8,"['cafe', 'food', 'store', 'point_of_interest', 'establishment']",4.3,350,"19 Bridge Road, Wembley Park, Wembley","51.5588, -0.2817",51.564592,-0.277879
CerbulRomanesc.uk,"51.5537699, -0.2912632",ChIJZzOoViwSdkgRwI0UQatC9sc,"['cafe', 'restaurant', 'food', 'point_of_interest', 'establishment']",4.0,600,"414 High Road, Wembley","51.5588, -0.2817",51.5537699,-0.2912632
Creams Cafe Wembley,"51.55224049999999, -0.2965288",ChIJcaIBFDISdkgRwpmRMqfir3g,"['bakery', 'cafe', 'meal_takeaway', 'restaurant', 'food', 'store', 'point_of_interest', 'establishment']",3.8,714,"Central Shopping Centre, 455 High Road, Wembley","51.5588, -0.2817",51.55224049999999,-0.2965288
Wild Bean Cafe,"51.5650114, -0.2644175",ChIJncfnq3MRdkgROyzxU5tCxWM,"['cafe', 'convenience_store', 'food', 'store', 'point_of_interest', 'establishment']",1.0,1,"2 Blackbird Hill, Wembley","51.5588, -0.2817",51.5650114,-0.2644175
bp,"51.56491, -0.26427",ChIJ8_I5MnIRdkgRCzzpYBTsnaM,"['gas_station', 'atm', 'convenience_store', 'cafe', 'car_wash', 'finance', 'food', 'store', 'point_of_interest', 'establishment']",2.9,32,"2 Blackbird Hill, Wembley","51.5588, -0.2817",51.56491,-0.26427
Costa Coffee,"51.405825, 0.015281",ChIJET4kMWyq2EcRe-MuXqNyeaA,"['cafe', 'store', 'food', 'point_of_interest', 'establishment']",4.1,749,"33-34 Market Square, Bromley","51.4039, 0.0198",51.405825,0.015281
Costa Coffee,"51.40685, -0.0282",ChIJ4cJqjr4BdkgRzVNA5O4EB8A,"['cafe', 'store', 'food', 'point_of_interest', 'establishment']",4.2,357,"194-202 High Street, Beckenham","51.4039, 0.0198",51.40685,-0.0282
Caffè Nero,"51.4179858, 0.0679893",ChIJ6QmB98Kr2EcRQcXkoK5_uVo,"['cafe', 'store', 'food', 'point_of_interest', 'establishment']",4.4,231,"12 High Street, Chislehurst","51.4039, 0.0198",51.4179858,0.0679893
Costa Coffee,"51.376243, 0.011273",ChIJMxXjgpqq2EcR1csDbb6Sxks,"['cafe', 'store', 'food', 'point_of_interest', 'establishment']",4.2,260,"51 Station Approach, Hayes, Bromley","51.4039, 0.0198",51.376243,0.011273
Costa Coffee,"51.4037, 0.016433",ChIJo82pu26q2EcRHSaUKj5E8qg,"['cafe', 'store', 'food', 'point_of_interest', 'establishment']",3.9,456,"Unit 28, The Glades Shopping Centre, Bromley","51.4039, 0.0198",51.4037,0.016433
Krispy Kreme Bromley,"51.40510380000001, 0.0164632",ChIJo82pu26q2EcR32KCcRr0WJQ,"['bakery', 'cafe', 'store', 'restaurant', 'food', 'point_of_interest', 'establishment']",4.2,75,"Kiosk 98 The Glades Shopping Centre, Bromley","51.4039, 0.0198",51.40510380000001,0.0164632
Rendezvous Caffe,"51.4080039, -0.0255196",ChIJ1R_1ub8BdkgRgOoP_wAKkjE,"['cafe', 'store', 'restaurant', 'food', 'point_of_interest', 'establishment']",4.6,403,"94 High Street, Beckenham","51.4039, 0.0198",51.4080039,-0.0255196
Cafe Giardino - Bromley,"51.4043845, 0.0168914",ChIJ77GFz26q2EcRn5_Ntm6w0kE,"['cafe', 'restaurant', 'food', 'point_of_interest', 'establishment']",4.1,875,"High Street, Bromley","51.4039, 0.0198",51.4043845,0.0168914
Creams Cafe Bromley,"51.4025676, 0.0164888",ChIJ0Rtp3G6q2EcRVbMX16QCIWs,"['meal_takeaway', 'bakery', 'cafe', 'store', 'restaurant', 'food', 'point_of_interest', 'establishment']",4.1,689,"12 Elmfield Road, Bromley","51.4039, 0.0198",51.4025676,0.0164888
Caffè Nero,"51.4027547, 0.0156025",ChIJ34AlmW6q2EcRe1oqMkqZ770,"['cafe', 'store', 'food', 'point_of_interest', 'establishment']",4.0,742,"The Glades Shopping Centre, High Street, Bromley","51.4039, 0.0198",51.4027547,0.0156025
Unico Gelato & Caffé,"51.40229420000001, 0.0158968",ChIJ80IP4W6q2EcRH9ykXgBVY6Y,"['bakery', 'cafe', 'store', 'restaurant', 'food', 'point_of_interest', 'establishment']",4.6,633,"75 High Street, Bromley","51.4039, 0.0198",51.40229420000001,0.0158968
Pret a Manger,"51.4028644, 0.0150561",ChIJ06eD9zSr2EcRJAXbCwF6Ots,"['bakery', 'cafe', 'bar', 'store', 'restaurant', 'food', 'point_of_interest', 'establishment']",3.8,283,"86 High Street, Bromley","51.4039, 0.0198",51.4028644,0.0150561
Stonehenge Cafe,"51.4053949, 0.0149449",ChIJ62Wp022q2EcRWp_cwGeEByA,"['cafe', 'store', 'food', 'point_of_interest', 'establishment']",4.2,311,"161 High Street, Bromley","51.4039, 0.0198",51.4053949,0.0149449
Caffè Nero,"51.4000539, 0.0168009",ChIJPwEFUG-q2EcRJxK_c83Bfqg,"['cafe', 'store', 'food', 'point_of_interest', 'establishment']",4.2,262,"12-14 High Street, Bromley","51.4039, 0.0198",51.4000539,0.0168009
Wild Bean Cafe,"51.40689620000001, 0.0284365",ChIJKb4HxUaq2EcR9l9n8jCK5oU,"['cafe', 'convenience_store', 'store', 'food', 'point_of_interest', 'establishment']",,0,"133-135 Widmore Road, Bromley","51.4039, 0.0198",51.40689620000001,0.0284365
Chaplin’s Café,"51.406282, 0.03289",ChIJJ79LQ0aq2EcRqspvnrJ0gGM,"['cafe', 'bakery', 'store', 'restaurant', 'food', 'point_of_interest', 'establishment']",4.2,64,"171 Widmore Road, Bromley","51.4039, 0.0198",51.406282,0.03289
Twins Cafe Bromley,"51.39197739999999, 0.03589150000000001",ChIJfWvicFeq2EcRzHjjR0nPMH4,"['cafe', 'food', 'point_of_interest', 'establishment']",4.7,130,"48 Chatterton Road, Bromley","51.4039, 0.0198",51.39197739999999,0.0358915
Costa Coffee,"51.392181, 0.001099",ChIJ_7roc3-q2EcRo1l3FP8FaAs,"['cafe', 'store', 'food', 'point_of_interest', 'establishment']",4.1,191,"147-151 Westmoreland Road, Bromley","51.4039, 0.0198",51.392181,0.001099
Shell,"51.4183057, 0.001848",ChIJc-RXTgiq2EcRIEWD-6U8F68,"['gas_station', 'convenience_store', 'meal_delivery', 'cafe', 'store', 'restaurant', 'food', 'point_of_interest', 'establishment']",4.0,90,"96A Bromley Hill, Bromley","51.4039, 0.0198",51.4183057,0.001848
Ted's Coffee Shop,"51.3900669, 0.050858",ChIJ9Zf_aqqr2EcRnHgBwaTl3ls,"['cafe', 'food', 'point_of_interest', 'establishment']",4.9,64,"227 Southborough Lane, Bromley","51.4039, 0.0198",51.3900669,0.050858
Generator London,"51.52620449999999, -0.124825",ChIJM4cpDTobdkgRx8LDQJ76Yu8,"['cafe', 'bar', 'lodging', 'point_of_interest', 'food', 'establishment']",3.7,4373,"37 Tavistock Place, London","51.529, -0.1255",51.52620449999999,-0.124825
The Wesley,"51.5266402, -0.135689",ChIJSXkoEyYbdkgRpmQAturmT2k,"['cafe', 'lodging', 'restaurant', 'point_of_interest', 'food', 'establishment']",3.9,1567,"81-103 Euston Street, London","51.529, -0.1255",51.5266402,-0.135689
The Rubens at the Palace,"51.49826530000001, -0.1434998",ChIJXX6W2iAFdkgREIjlbrOHCOw,"['cafe', 'bar', 'lodging', 'restaurant', 'point_of_interest', 'food', 'establishment']",4.5,1818,"39 Buckingham Palace Road, London","51.529, -0.1255",51.49826530000001,-0.1434998
Park Room,"51.5098444, -0.155529",ChIJx_BjgDEFdkgRoN3QNXf9dAU,"['cafe', 'restaurant', 'point_of_interest', 'food', 'establishment']",4.5,218,"86-90 Park Lane, London","51.529, -0.1255",51.5098444,-0.155529
BFI IMAX,"51.50487889999999, -0.1136318",ChIJm_mee7cEdkgRM0sbLsHGeWg,"['movie_theater', 'cafe', 'bar', 'point_of_interest', 'food', 'store', 'establishment']",4.6,6419,"Waterloo, 1 Charlie Chaplin Walk South Bank","51.529, -0.1255",51.50487889999999,-0.1136318
The Bermondsey Square Hotel,"51.497719, -0.08131559999999999",ChIJU3VpMEMDdkgRpGZTvZ-x7jI,"['cafe', 'lodging', 'restaurant', 'point_of_interest', 'food', 'store', 'establishment']",4.2,760,"9 Bermondsey Square, London","51.529, -0.1255",51.497719,-0.0813155999999999
The Wolseley,"51.5074427, -0.1409233",ChIJr_4cVy8FdkgRIrNbO93eUFM,"['cafe', 'restaurant', 'point_of_interest', 'food', 'establishment']",4.4,6057,"160 Piccadilly, St. James's, London","51.529, -0.1255",51.5074427,-0.1409233
The Ivy,"51.51286029999999, -0.128045",ChIJVcvKc80EdkgRyV3q0YIzDvc,"['cafe', 'bar', 'restaurant', 'point_of_interest', 'food', 'establishment']",4.4,3508,"1-5 West Street, London","51.529, -0.1255",51.51286029999999,-0.128045
Rich Mix,"51.5243955, -0.07319679999999998",ChIJDT5Fc7ccdkgRTJN0vGqwGNE,"['movie_theater', 'art_gallery', 'cafe', 'point_of_interest', 'food', 'establishment']",4.5,1973,"35-47 Bethnal Green Road, London","51.529, -0.1255",51.5243955,-0.0731967999999999
The Pilgrm Hotel Restaurant and Bar Paddington,"51.51576679999999, -0.1744445",ChIJARBMxLIadkgR-ahswfwrT8w,"['night_club', 'cafe', 'bar', 'lodging', 'point_of_interest', 'food', 'establishment']",4.0,920,"25 London Street, London","51.529, -0.1255",51.51576679999999,-0.1744445
ODEON Tottenham Court Rd,"51.5183526, -0.1324275",ChIJpy-n8ygbdkgRblRTJU1WiXA,"['movie_theater', 'cafe', 'point_of_interest', 'food', 'store', 'establishment']",3.7,1572,"Central Cross, 30 Tottenham Court Road, London","51.529, -0.1255",51.5183526,-0.1324275
L'Escargot Restaurant,"51.5139706, -0.1309972",ChIJv2nJxtIEdkgR5BVDRcOlpog,"['cafe', 'bar', 'restaurant', 'point_of_interest', 'food', 'establishment']",4.4,857,"48 Greek Street, London","51.529, -0.1255",51.5139706,-0.1309972
Wigmore Hall,"51.516608, -0.1481362",ChIJ-dNEa9MadkgRNYqylAShZqU,"['cafe', 'bar', 'restaurant', 'point_of_interest', 'food', 'establishment']",4.8,1260,"36 Wigmore Street, London","51.529, -0.1255",51.516608,-0.1481362
Monmouth Coffee Company,"51.5055334, -0.09140690000000001",ChIJ94DTm1cDdkgRibmgxzXy2EQ,"['cafe', 'point_of_interest', 'food', 'store', 'establishment']",4.5,2088,"2 Park Street, London","51.529, -0.1255",51.5055334,-0.0914069
ODEON Luxe West End,"51.50992159999999, -0.1301796",ChIJ8xZFCNIEdkgRh6ulrAY-hOw,"['movie_theater', 'cafe', 'bar', 'point_of_interest', 'food', 'store', 'establishment']",4.6,343,"38a Leicester Square, London","51.529, -0.1255",51.50992159999999,-0.1301796
The British Library,"51.52997169999999, -0.1276759",ChIJlRMXcDsbdkgRJdsP3nlUkBg,"['library', 'tourist_attraction', 'cafe', 'restaurant', 'point_of_interest', 'food', 'store', 'establishment']",4.5,2638,"96 Euston Road, London","51.529, -0.1255",51.52997169999999,-0.1276759
Foyles,"51.51430149999999, -0.1299049",ChIJ5574rdIEdkgRA9294QpXDhw,"['book_store', 'cafe', 'electronics_store', 'home_goods_store', 'point_of_interest', 'food', 'store', 'establishment']",4.7,11013,"107 Charing Cross Road, London","51.529, -0.1255",51.51430149999999,-0.1299049
Curzon Soho,"51.5127004, -0.1305849",ChIJR_tP9tIEdkgR50LK64QCsck,"['movie_theater', 'cafe', 'bar', 'restaurant', 'point_of_interest', 'food', 'establishment']",4.5,1586,"99 Shaftesbury Avenue, London","51.529, -0.1255",51.5127004,-0.1305849
The Table Café,"51.5054844, -0.0998167",ChIJbc-9tKgEdkgR2qNGtGhKWLc,"['cafe', 'restaurant', 'point_of_interest', 'food', 'establishment']",4.3,1982,"83 Southwark Street, London","51.529, -0.1255",51.5054844,-0.0998167
Swan London,"51.5082418, -0.09652360000000001",ChIJ70dbCqkEdkgR_2rXCHnP0aQ,"['restaurant', 'cafe', 'bar', 'point_of_interest', 'food', 'establishment']",4.3,3040,"21 New Globe Walk, Bankside, London","51.529, -0.1255",51.5082418,-0.0965236
The Tram Stop,"51.38025599999999, -0.0733924",ChIJe6d449wAdkgRZPwin12YzPU,"['cafe', 'restaurant', 'food', 'point_of_interest', 'establishment']",4.3,320,"231 Lower Addiscombe Road, Croydon","51.3714, -0.0977",51.38025599999999,-0.0733924
bp,"51.3788072, -0.1109563",ChIJgdGJVyMHdkgRHKzCOp_0wGU,"['gas_station', 'atm', 'car_wash', 'convenience_store', 'cafe', 'finance', 'store', 'food', 'point_of_interest', 'establishment']",2.6,54,"3 Mitcham Road, Croydon","51.3714, -0.0977",51.3788072,-0.1109563
Pavilion @ BedZED,"51.3831545, -0.1565439",ChIJNS_vQ7EHdkgRFyK2VdPwcBQ,"['cafe', 'food', 'point_of_interest', 'establishment']",4.0,51,"24A Sandmartin Way, Hackbridge, Wallington","51.3714, -0.0977",51.3831545,-0.1565439
Cafe Del Mar,"51.35851369999999, -0.1452875",ChIJ-WvL5pwHdkgRqqF2HK8LUXY,"['cafe', 'restaurant', 'food', 'point_of_interest', 'establishment']",4.7,72,"48 Stafford Road, Wallington","51.3714, -0.0977",51.35851369999999,-0.1452875
Waddon Cafe,"51.36465010000001, -0.1179416",ChIJq-fOaGoHdkgRvkMkjIfTPHo,"['cafe', 'food', 'point_of_interest', 'establishment']",4.3,90,"445 Purley Way, Croydon","51.3714, -0.0977",51.36465010000001,-0.1179416
Today's Cafe,"51.3538806, -0.09754410000000001",ChIJ21zcuFMHdkgRh-QbHbjKxs8,"['cafe', 'food', 'point_of_interest', 'establishment']",4.7,348,"267 Brighton Road, South Croydon","51.3714, -0.0977",51.3538806,-0.0975441
Al Amora Lounge,"51.385601, -0.09990729999999999",ChIJq3cuZSkHdkgRR-RY_6fw3ow,"['cafe', 'food', 'point_of_interest', 'establishment']",4.4,165,"78 Windmill Road, Croydon","51.3714, -0.0977",51.385601,-0.0999072999999999
Yeha Noha Cafe Bar,"51.397839, -0.07568289999999998",ChIJT5vUeiMBdkgRZ9f-RcPCAbc,"['restaurant', 'cafe', 'food', 'point_of_interest', 'establishment']",4.6,206,"Yeha Noha Cafe, 19-21 Station Road, London","51.3714, -0.0977",51.397839,-0.0756828999999999
English & Continental,"51.37550960000001, -0.0993801",ChIJh_Hx1TMHdkgRD1iVBwvtUOQ,"['cafe', 'restaurant', 'food', 'point_of_interest', 'establishment']",4.2,56,"1074, Whitgift Centre, 21 North End, Croydon","51.3714, -0.0977",51.37550960000001,-0.0993801
Pure Foods,"51.38683090000001, -0.1344001",ChIJM97UeAEHdkgRjDWhyplj3Mo,"['cafe', 'store', 'food', 'point_of_interest', 'establishment']",5.0,2,"4 Coomber Way, Croydon","51.3714, -0.0977",51.38683090000001,-0.1344001
Mayday Cafe,"51.3855279, -0.1100945",ChIJPUgZ0CYHdkgRJa6AJdqGXSM,"['cafe', 'food', 'point_of_interest', 'establishment']",4.3,75,"355 London Road, Croydon","51.3714, -0.0977",51.3855279,-0.1100945
Classic Cafe Croydon,"51.37614199999999, -0.1026035",ChIJ2TGVnjEHdkgRIAhxj6LcQKA,"['cafe', 'food', 'point_of_interest', 'establishment']",3.3,108,"1019, Whitgift Centre, 21 North End, Croydon","51.3714, -0.0977",51.37614199999999,-0.1026035
Massarella Catering Co,"51.3744896, -0.1170561",ChIJNQzkGBYHdkgRQer4GIung1E,"['cafe', 'food', 'point_of_interest', 'establishment']",4.0,3,"1 Drury Crescent, Croydon","51.3714, -0.0977",51.3744896,-0.1170561
Crushed Bean,"51.37113649999999, -0.1001019",ChIJrzNRjjYHdkgR-MHNcB5Tww4,"['cafe', 'store', 'food', 'point_of_interest', 'establishment']",4.8,305,"81 High Street, Croydon","51.3714, -0.0977",51.37113649999999,-0.1001019
The Ludoquist - Board Game Cafe Bar,"51.3715824, -0.1003029",ChIJ6Se2ljYHdkgRLtO-G6KxKJ4,"['cafe', 'store', 'food', 'point_of_interest', 'establishment']",4.8,1254,"63-67 High Street, Croydon","51.3714, -0.0977",51.3715824,-0.1003029
Caffè Nero,"51.37387829999999, -0.09842200000000001",ChIJ9S-z7zMHdkgRTmJQjgzJJBo,"['cafe', 'store', 'food', 'point_of_interest', 'establishment']",4.2,456,"44 George Street, Croydon","51.3714, -0.0977",51.37387829999999,-0.098422
Costa Coffee,"51.374394, -0.101177",ChIJDT-3PTEHdkgRKE5gsi5UCUM,"['cafe', 'store', 'food', 'point_of_interest', 'establishment']",4.3,174,"Ground Floor, 11, Bath & Body Works, 19 North End, Croydon","51.3714, -0.0977",51.374394,-0.101177
Caffè Nero,"51.37465539999999, -0.0944922",ChIJYXTMODMHdkgRh4O8AAYyv-Q,"['cafe', 'store', 'food', 'point_of_interest', 'establishment']",4.1,498,"93 George Street, East, Croydon","51.3714, -0.0977",51.37465539999999,-0.0944922
Bao Bao Taiwanese Street Food,"51.375038, -0.09413819999999999",ChIJTRLMMDMHdkgRqePhdxMY-E4,"['cafe', 'restaurant', 'food', 'point_of_interest', 'establishment']",4.7,646,"Unit 44-45, Boxpark, 99 George Street, Croydon","51.3714, -0.0977",51.375038,-0.0941381999999999
Costa Coffee,"51.375025, -0.093171",ChIJjUnXzcwAdkgRHYG4WUom9Zc,"['cafe', 'store', 'food', 'point_of_interest', 'establishment']",3.9,143,"1 Station, Station Approach, Croydon","51.3714, -0.0977",51.375025,-0.093171
Watermans Arts Centre,"51.4856828, -0.298389",ChIJg8sNzcUNdkgR_S-B1tKKYTU,"['movie_theater', 'cafe', 'art_gallery', 'restaurant', 'point_of_interest', 'food', 'establishment']",4.5,626,"40 High Street, Brentford","51.513, -0.3089",51.4856828,-0.298389
The National Archives,"51.4811031, -0.2793934",ChIJYe6r5ngOdkgRf6SVcbMsQ0k,"['book_store', 'cafe', 'travel_agency', 'park', 'storage', 'store', 'point_of_interest', 'food', 'establishment']",4.5,238,"Bessant Drive, Richmond","51.513, -0.3089",51.4811031,-0.2793934
Shell,"51.48344400000001, -0.328037",ChIJR-ldBggNdkgREAGotmsEobM,"['gas_station', 'convenience_store', 'meal_delivery', 'cafe', 'restaurant', 'store', 'point_of_interest', 'food', 'establishment']",3.6,51,"882 Great West Road, Isleworth","51.513, -0.3089",51.48344400000001,-0.328037
Piccola Italia Ealing,"51.51074070000001, -0.3052565",ChIJbcpVz_QNdkgR_lEpKWoNYjo,"['meal_takeaway', 'cafe', 'bar', 'restaurant', 'point_of_interest', 'food', 'establishment']",4.1,561,"21 The Green, London","51.513, -0.3089",51.51074070000001,-0.3052565
Caffè Nero,"51.51271609999999, -0.3071020999999999",ChIJdQPH2ooNdkgRBrfbYIFbHVc,"['cafe', 'store', 'point_of_interest', 'food', 'establishment']",4.3,371,"51 New Broadway, London","51.513, -0.3089",51.51271609999999,-0.3071020999999999
The Original Maids of Honour,"51.48080189999999, -0.2884071",ChIJc6omM9cNdkgRvrMpr224nbk,"['cafe', 'point_of_interest', 'food', 'establishment']",4.3,1013,"288 Kew Road, Richmond","51.513, -0.3089",51.48080189999999,-0.2884071
Caffe Nero,"51.49270509999999, -0.2647684",ChIJrRFJoWwOdkgResXT_6d6W4U,"['cafe', 'store', 'point_of_interest', 'food', 'establishment']",4.2,378,"386 Chiswick High Road, London","51.513, -0.3089",51.49270509999999,-0.2647684
Chiswick House and Gardens Trust,"51.4838077, -0.2586959999999999",ChIJn41YYUIOdkgR7Axs1ca0HZQ,"['park', 'tourist_attraction', 'cafe', 'point_of_interest', 'food', 'establishment']",4.6,938,"Chiswick House, London","51.513, -0.3089",51.4838077,-0.2586959999999999
Bagel & Shake Ealing,"51.513111, -0.3194325000000001",ChIJZ0evRYYNdkgRy-FGu1dUr2U,"['cafe', 'bakery', 'store', 'point_of_interest', 'food', 'establishment']",3.6,266,"46-48 Drayton Green Road, London","51.513, -0.3089",51.513111,-0.3194325000000001
Costa Coffee,"51.50735, -0.34654",ChIJE8vwrl4NdkgRw2tHb1qShmk,"['cafe', 'store', 'point_of_interest', 'food', 'establishment']",3.8,225,"Ealing Hospital, Uxbridge Road, Southall","51.513, -0.3089",51.50735,-0.34654
Costa Coffee,"51.50998, -0.28748",ChIJP-gIz5eqd0gRdUMyi6EZOkA,"['cafe', 'store', 'point_of_interest', 'food', 'establishment']",3.9,229,"437 Uxbridge Road, London","51.513, -0.3089",51.50998,-0.28748
Brentford Fountain Leisure Centre,"51.4908641, -0.2850528000000001",ChIJA_7iA98NdkgR8IfbXecH1vg,"['cafe', 'point_of_interest', 'food', 'establishment']",3.5,1082,"658 Chiswick High Road, Brentford, London","51.513, -0.3089",51.4908641,-0.2850528000000001
Costa Coffee,"51.54279, -0.33946",ChIJl2L7z2cSdkgRo74jxAuXx0A,"['cafe', 'store', 'point_of_interest', 'food', 'establishment']",4.1,742,"Unit 14, Westway Cross Shopping Park, Greenford","51.513, -0.3089",51.54279,-0.33946
Arabella sweet,"51.52649329999999, -0.2662818999999999",ChIJuy7UOO8RdkgRGZimx1sBN6c,"['cafe', 'point_of_interest', 'food', 'establishment']",5.0,1,"Park Royal Business Centre, 9-17 Park Royal Road, London","51.513, -0.3089",51.52649329999999,-0.2662818999999999
Boof Restaurant,"51.512618, -0.307351",ChIJEzcD6IoNdkgR21oZVnC1dYA,"['meal_takeaway', 'meal_delivery', 'cafe', 'bar', 'restaurant', 'store', 'point_of_interest', 'food', 'establishment']",4.1,813,"57 New Broadway, London","51.513, -0.3089",51.512618,-0.307351
Artisan Coffee School,"51.5131139, -0.3066972000000001",ChIJT4ERy4oNdkgRbv3nQazu080,"['cafe', 'point_of_interest', 'food', 'establishment']",4.7,266,"32 New Broadway, London","51.513, -0.3089",51.5131139,-0.3066972000000001
ODEON Luxe Lee Valley,"51.6331468, -0.0372402",ChIJZ9BlTloedkgRMx_MWbh5iB0,"['movie_theater', 'cafe', 'bar', 'store', 'point_of_interest', 'food', 'establishment']",4.3,3691,"Lee Valley, Edmonton, Pickett's Lock Lane, London","51.6538, -0.0799",51.6331468,-0.0372402
bp,"51.67990999999999, -0.04832",ChIJicXfbX8fdkgRCJFKKTbLQCQ,"['gas_station', 'car_wash', 'atm', 'cafe', 'finance', 'point_of_interest', 'food', 'establishment']",2.9,19,"Bullsmoor Lane, Enfield","51.6538, -0.0799",51.67990999999999,-0.04832
Costa Coffee,"51.64781300000001, -0.04783",ChIJ4TT-YAcfdkgRSZJHRXqaLTo,"['cafe', 'store', 'point_of_interest', 'food', 'establishment']",4.0,110,"288 High Street, Enfield","51.6538, -0.0799",51.64781300000001,-0.04783
Krispy Kreme Enfield,"51.65235, -0.05934000000000001",ChIJ9731qRofdkgR_z8our7oTZE,"['cafe', 'bakery', 'restaurant', 'store', 'point_of_interest', 'food', 'establishment']",4.4,2623,"492 Great Cambridge Road, Enfield","51.6538, -0.0799",51.65235,-0.05934
Costa Coffee,"51.651189, -0.083939",ChIJR_cD5S8fdkgR4Mt6aE8CLUQ,"['cafe', 'store', 'point_of_interest', 'food', 'establishment']",4.0,249,26 Palace Gardens Shopping Cen,"51.6538, -0.0799",51.651189,-0.083939
Cafe Venezia,"51.643839, -0.113314",ChIJ1_dsIN8YdkgR7i0lq7VfmuM,"['cafe', 'restaurant', 'store', 'point_of_interest', 'food', 'establishment']",4.6,91,"8 Chaseville Parade, Chaseville Park Road, London","51.6538, -0.0799",51.643839,-0.113314
Occo Cafe,"51.65224389999999, -0.0828451",ChIJOxDYBTAfdkgRTlNkqRq9xYo,"['cafe', 'store', 'point_of_interest', 'food', 'establishment']",4.4,18,"Market Chambers, Church Street, Enfield","51.6538, -0.0799",51.65224389999999,-0.0828451
Creams Cafe Enfield,"51.6522106, -0.07687859999999998",ChIJMWRQVzsfdkgRDuerztcUklE,"['meal_takeaway', 'cafe', 'bakery', 'restaurant', 'store', 'point_of_interest', 'food', 'establishment']",4.0,897,"5-6 Savoy Parade, Enfield","51.6538, -0.0799",51.6522106,-0.0768785999999999
Caffè Nero,"51.6514579, -0.08295250000000001",ChIJRfoTrDofdkgRnKqBmcw6Ybw,"['cafe', 'store', 'point_of_interest', 'food', 'establishment']",3.9,516,"Shopping Centre, palace Exchange, 22 The Town, Enfield","51.6538, -0.0799",51.6514579,-0.0829525
Leo's Coffee Shop,"51.6532102, -0.0908163",ChIJb6coQzIfdkgRAjmXl7WnJLE,"['cafe', 'store', 'point_of_interest', 'food', 'establishment']",4.7,27,"Platform 1, Enfield Chase Railway Station, Windmill Hill, Enfield","51.6538, -0.0799",51.6532102,-0.0908163
Zippola,"51.66408740000001, -0.08183230000000001",ChIJRY1T20cfdkgRQKClloYK7_E,"['cafe', 'store', 'point_of_interest', 'food', 'establishment']",4.5,299,"Zippola, Live to Eat, 93 Lancaster Road, Enfield","51.6538, -0.0799",51.66408740000001,-0.0818323
Starbucks Coffee,"51.6501224, -0.0607296",ChIJuxIO6RofdkgRByQ9t1LxgBo,"['cafe', 'restaurant', 'store', 'point_of_interest', 'food', 'establishment']",3.6,82,"208 Southbury Road, Enfield","51.6538, -0.0799",51.6501224,-0.0607296
Costa Coffee,"51.65448, -0.05898",ChIJcVqXuQ8fdkgRV-o5df5DDWg,"['cafe', 'store', 'point_of_interest', 'food', 'establishment']",4.1,309,"Unit 1, Next Home, Enfield Retail Park, Crown Road, Enfield","51.6538, -0.0799",51.65448,-0.05898
Stantons Coffee House,"51.64181199999999, -0.0699637",ChIJsyI65R8fdkgRDoGwWggqvf4,"['cafe', 'store', 'point_of_interest', 'food', 'establishment']",4.8,93,"7 Queen Anne's Place, Enfield","51.6538, -0.0799",51.64181199999999,-0.0699637
Shell,"51.66362700000001, -0.0568554",ChIJ29DdwHIfdkgRVScJVqNs5Wc,"['gas_station', 'car_wash', 'convenience_store', 'meal_delivery', 'cafe', 'restaurant', 'store', 'point_of_interest', 'food', 'establishment']",4.1,112,"790 Great Cambridge Road, Enfield","51.6538, -0.0799",51.66362700000001,-0.0568554
Caffe Napoli,"51.6377731, -0.0667058",ChIJt98SEeEedkgRQfOBj3qabLE,"['cafe', 'point_of_interest', 'food', 'establishment']",,0,"79 Lynmouth Avenue, Enfield","51.6538, -0.0799",51.6377731,-0.0667058
Costa Coffee,"51.6579, -0.046995",ChIJfQesp6AfdkgRZg45ojvM9xI,"['cafe', 'store', 'point_of_interest', 'food', 'establishment']",4.2,253,"163 Hertford Road, Enfield","51.6538, -0.0799",51.6579,-0.046995
The Larder,"51.6342671, -0.1028123",ChIJkYDn4y4ZdkgRmlpreHUyic0,"['cafe', 'bar', 'restaurant', 'store', 'point_of_interest', 'food', 'establishment']",4.6,94,"26 The Green, London","51.6538, -0.0799",51.6342671,-0.1028123
Coffee Break,"51.63175500000001, -0.09455590000000003",ChIJZXaaSy0ZdkgRD3elCWHFrGA,"['cafe', 'restaurant', 'store', 'point_of_interest', 'food', 'establishment']",4.6,553,"792 Green Lanes, London","51.6538, -0.0799",51.63175500000001,-0.0945559
ODEON Greenwich,"51.49059219999999, 0.0127925",ChIJV9DJkD6o2EcRU7piWt6eKBM,"['movie_theater', 'cafe', 'store', 'food', 'bar', 'point_of_interest', 'establishment']",4.1,4143,"Bugsby's Way, London","51.4892, 0.0648",51.49059219999999,0.0127925
Costa Coffee - Woolwich DLR,"51.490332, 0.0693795",ChIJqaXtVuqo2EcROkrxQemFFVo,"['cafe', 'store', 'food', 'point_of_interest', 'establishment']",3.7,507,"1 Woolwich New Road, London","51.4892, 0.0648",51.490332,0.0693795
Costa Coffee,"51.49078, 0.02343",ChIJEfz3s0Co2EcRf16Y1uxXXR4,"['cafe', 'store', 'food', 'point_of_interest', 'establishment']",4.2,226,"Unit C, NEXT, 4 Brocklebank Road, London","51.4892, 0.0648",51.49078,0.02343
The Garden Community Cafe,"51.51108729999999, 0.0328802",ChIJqTqfIneo2EcRp5oO3mWw6AQ,"['cafe', 'food', 'point_of_interest', 'establishment']",4.7,114,"7 Cundy Road, London","51.4892, 0.0648",51.51108729999999,0.0328802
Charlton House & Gardens,"51.48059880000001, 0.03717220000000001",ChIJPxw89E6o2EcRZB3M9ThmSow,"['cafe', 'food', 'point_of_interest', 'establishment']",4.5,678,"Charlton Road, London","51.4892, 0.0648",51.48059880000001,0.0371722
East Greenwich Pleasaunce,"51.484675, 0.0137639",ChIJS__ikjqo2EcRbhoIhRk_h04,"['park', 'cafe', 'store', 'restaurant', 'food', 'point_of_interest', 'establishment']",4.6,326,"10 Chevening Road, London","51.4892, 0.0648",51.484675,0.0137639
Asda Beckton Superstore,"51.5150406, 0.05756790000000001",ChIJAQsOPNWn2EcR9EUp-qjRM6I,"['supermarket', 'gas_station', 'atm', 'pharmacy', 'cafe', 'clothing_store', 'grocery_or_supermarket', 'finance', 'store', 'food', 'point_of_interest', 'health', 'establishment']",3.6,1005,"Tollgate Road, Beckton","51.4892, 0.0648",51.5150406,0.0575679
Marks and Spencer,"51.4509354, 0.0549693",ChIJi2AeI3Op2EcR4EG1d3UVBxE,"['department_store', 'supermarket', 'convenience_store', 'cafe', 'clothing_store', 'grocery_or_supermarket', 'store', 'food', 'point_of_interest', 'establishment']",4.2,926,"115 Eltham High Street, London","51.4892, 0.0648",51.4509354,0.0549693
Buenos Aires Cafe,"51.46716559999999, 0.007254000000000001",ChIJD2tuXdGp2EcRTm_RJxck12o,"['cafe', 'restaurant', 'food', 'point_of_interest', 'establishment']",4.4,569,"17 Royal Parade, London","51.4892, 0.0648",51.46716559999999,0.007254
Costa Coffee,"51.467399, 0.007877000000000002",ChIJn4ljDdGp2EcRm1z7Y4fwR6g,"['cafe', 'store', 'food', 'point_of_interest', 'establishment']",4.2,279,"41 Tranquil Vale, London","51.4892, 0.0648",51.467399,0.007877
The Coffee Lounge,"51.4904417, 0.0682417",ChIJqXZnT-qo2EcR5CeWmIfw0Iw,"['cafe', 'store', 'restaurant', 'food', 'point_of_interest', 'establishment']",4.2,515,"Equitable House, 29 Greens End, London","51.4892, 0.0648",51.4904417,0.0682417
Roz Cafe,"51.50087869999999, 0.06309429999999999",ChIJX05KEZGo2EcR7fJISzZyf8w,"['cafe', 'food', 'point_of_interest', 'establishment']",4.3,82,"1 Pier Road, London","51.4892, 0.0648",51.50087869999999,0.0630942999999999
Moca cafe,"51.476733, 0.0209958",ChIJ7_RQtjWo2EcRSy5ba2Pew88,"['cafe', 'store', 'restaurant', 'food', 'point_of_interest', 'establishment']",4.6,239,"10 Old Dover Road, London","51.4892, 0.0648",51.476733,0.0209958
Tesco Cafe,"51.48919209999999, 0.06624929999999998",ChIJrWh-3Ouo2EcRaVbAefjwnY4,"['cafe', 'store', 'restaurant', 'food', 'point_of_interest', 'establishment']",3.7,56,"Grand Depot Road, London","51.4892, 0.0648",51.48919209999999,0.0662492999999999
First Choice Cafe And Restaurant,"51.49348, 0.06337899999999999",ChIJM_aituyo2EcR2R0zrymLWXI,"['cafe', 'restaurant', 'food', 'point_of_interest', 'establishment']",4.5,461,"51 Hare Street, London","51.4892, 0.0648",51.49348,0.0633789999999999
The Yoga Space London,"51.4946502, 0.06653479999999998",ChIJdcvD68Co2EcRYFV4MBpPQ1o,"['gym', 'cafe', 'store', 'food', 'point_of_interest', 'health', 'establishment']",4.8,63,"Norton House, Duke of Wellington Avenue, London","51.4892, 0.0648",51.4946502,0.0665347999999999
Menagerie Cafe,"51.4920267, 0.07648390000000001",ChIJL37yMseo2EcR3pmopsPd_Zk,"['cafe', 'food', 'point_of_interest', 'establishment']",3.4,11,"Unit 9, The I O Centre, Skeffington Street, London","51.4892, 0.0648",51.4920267,0.0764839
Arts Cafe,"51.4946119, 0.04484590000000001",ChIJW-L9ZmCo2EcRD6uBtukAr3s,"['cafe', 'food', 'point_of_interest', 'establishment']",4.3,70,"Thames-Side Studios Gallery, Harrington Way, Warspite Road, London","51.4892, 0.0648",51.4946119,0.0448459
The Plumstead Pantry SE18,"51.48180379999999, 0.0836855",ChIJycUwatCo2EcRp7YHAKZ7OK4,"['restaurant', 'cafe', 'store', 'food', 'point_of_interest', 'establishment']",4.7,162,"16 Warwick Terrace, London","51.4892, 0.0648",51.48180379999999,0.0836855
The Chef House kitchen,"51.49396369999999, 0.0421675",ChIJr2pAGW-p2EcRadF0WqUVdxU,"['cafe', 'food', 'point_of_interest', 'establishment']",4.7,124,"Westminster Industrial Estate, 19 Bowater Road (unit 76 In, London","51.4892, 0.0648",51.49396369999999,0.0421675
Cafe 1001,"51.52093410000001, -0.0719882",ChIJcwCeFbYcdkgRlPGrpXVrFBo,"['cafe', 'bar', 'point_of_interest', 'food', 'establishment']",4.2,959,"91 Brick Lane, London","51.545, -0.0553",51.52093410000001,-0.0719882
Ottolenghi Islington,"51.5397504, -0.1022929",ChIJYVig82YbdkgRi6zgskkA6TM,"['cafe', 'restaurant', 'point_of_interest', 'food', 'store', 'establishment']",4.4,2116,"287 Upper Street, London","51.545, -0.0553",51.5397504,-0.1022929
Allpress Espresso Bar Shoreditch,"51.52440099999999, -0.07426039999999999",ChIJV_Via7ccdkgRvCItLvUmrNw,"['cafe', 'point_of_interest', 'food', 'store', 'establishment']",4.4,612,"58 Redchurch Street, London","51.545, -0.0553",51.52440099999999,-0.0742603999999999
Wilton's Music Hall,"51.51070129999999, -0.0668967",ChIJbcQbMTQDdkgRGnjfXht0wPA,"['tourist_attraction', 'cafe', 'bar', 'point_of_interest', 'food', 'establishment']",4.8,2093,"1 Graces Alley, London","51.545, -0.0553",51.51070129999999,-0.0668967
Costa Coffee,"51.518699, -0.084719",ChIJn9GcSawcdkgRn37GMHm3zAg,"['cafe', 'point_of_interest', 'food', 'store', 'establishment']",4.1,422,"9 Eldon Street, Broadgate, London","51.545, -0.0553",51.518699,-0.084719
The Zetter Clerkenwell,"51.5230962, -0.1038718",ChIJr6-6s1EbdkgRwChbpZiwqqA,"['cafe', 'lodging', 'bar', 'restaurant', 'point_of_interest', 'food', 'establishment']",4.4,972,"49-50 Saint John's Square, London","51.545, -0.0553",51.5230962,-0.1038718
La Divina Italian Restaurant,"51.5392687, -0.1025622",ChIJS81X-GYbdkgRVxyAEsjWrwg,"['cafe', 'bar', 'restaurant', 'point_of_interest', 'food', 'establishment']",4.5,1011,"134 Upper Street, London","51.545, -0.0553",51.5392687,-0.1025622
Cafe OTO,"51.54694199999999, -0.07477230000000001",ChIJT572jI0cdkgRe6ZCGWDlysg,"['cafe', 'point_of_interest', 'food', 'establishment']",4.6,626,"18-22 Ashwin Street, London","51.545, -0.0553",51.54694199999999,-0.0747723
The Breakfast Club Angel,"51.5350988, -0.103734",ChIJc9cGbF0bdkgRznpH5zlh38E,"['cafe', 'bar', 'restaurant', 'point_of_interest', 'food', 'establishment']",4.2,2312,"31 Camden Passage, London","51.545, -0.0553",51.5350988,-0.103734
Manicomio City Restaurant,"51.5155225, -0.0954193",ChIJ6agvSFUbdkgR3PO7Wiq5wyA,"['cafe', 'restaurant', 'point_of_interest', 'food', 'store', 'establishment']",4.2,398,"6 Gutter Lane, London","51.545, -0.0553",51.5155225,-0.0954193
Strongroom Bar,"51.5259464, -0.08005219999999999",ChIJf8u2m7ocdkgRLeLo56yXOug,"['bar', 'cafe', 'restaurant', 'point_of_interest', 'food', 'store', 'establishment']",4.2,2003,"120-124 Curtain Road, London","51.545, -0.0553",51.5259464,-0.0800521999999999
Bottega Prelibato Restaurant,"51.52612739999999, -0.08142909999999999",ChIJX85JrrocdkgRn0nUGes3k1s,"['cafe', 'bar', 'restaurant', 'point_of_interest', 'food', 'store', 'establishment']",4.1,682,"43-45 Rivington Street, London","51.545, -0.0553",51.52612739999999,-0.0814290999999999
Paper Dress Vintage,"51.5473541, -0.05467259999999999",ChIJGfZUnLocdkgRGn_TKi4O0WM,"['cafe', 'clothing_store', 'night_club', 'bar', 'home_goods_store', 'point_of_interest', 'food', 'store', 'establishment']",4.6,498,"352a Mare Street, London","51.545, -0.0553",51.5473541,-0.0546725999999999
Bike Shed Moto Co.,"51.5271434, -0.0788825",ChIJ9e503dICdkgRulsUq3cF-8Y,"['cafe', 'clothing_store', 'bar', 'hair_care', 'health', 'restaurant', 'point_of_interest', 'food', 'store', 'establishment']",4.7,3675,"384 Old Street, London","51.545, -0.0553",51.5271434,-0.0788825
Caravan Exmouth Market Restaurant,"51.52546299999999, -0.1100856",ChIJT_W5ikUbdkgRoEa2c9t3e5s,"['restaurant', 'cafe', 'bar', 'point_of_interest', 'food', 'store', 'establishment']",4.2,1266,"11-13 Exmouth Market, London","51.545, -0.0553",51.52546299999999,-0.1100856
Gallery Cafe,"51.52987400000001, -0.05447",ChIJr34Mk9scdkgRqczSG77MsbE,"['cafe', 'restaurant', 'point_of_interest', 'food', 'establishment']",4.3,941,"St. Margarets House Settlement, 21 Old Ford Road, Bethnal Green, London","51.545, -0.0553",51.52987400000001,-0.05447
Gallipoli Restaurant,"51.5385288, -0.1026159",ChIJ-S8EqGcbdkgRvtjI--yC5KE,"['cafe', 'bar', 'restaurant', 'point_of_interest', 'food', 'establishment']",4.4,1423,"119-120 Upper Street, London","51.545, -0.0553",51.5385288,-0.1026159
Costa Coffee,"51.519943, -0.105043",ChIJX36gA1IbdkgR_qGNlo6ZDbk,"['cafe', 'point_of_interest', 'food', 'store', 'establishment']",4.1,280,"46 Cowcross Street, London","51.545, -0.0553",51.519943,-0.105043
Med's Cafe,"51.522864, -0.03397489999999999",ChIJo-nayTEddkgR2WOy_wNNC9Q,"['cafe', 'bakery', 'restaurant', 'point_of_interest', 'food', 'store', 'establishment']",4.2,634,"37 Burdett Road, London","51.545, -0.0553",51.522864,-0.0339748999999999
London Lodge Hotel,"51.495723, -0.19496",ChIJC8OFcvMPdkgReKARKoiXKs0,"['cafe', 'lodging', 'clothing_store', 'night_club', 'bar', 'store', 'restaurant', 'food', 'point_of_interest', 'establishment']",4.2,365,"134-136 Lexham Gardens, London","51.4927, -0.2339",51.495723,-0.19496
Afternoon Tea at The Milestone Hotel,"51.50200719999999, -0.1866267",ChIJ98briVgFdkgR3vxkMvlFN28,"['cafe', 'food', 'point_of_interest', 'establishment']",4.6,92,"1-3 Kensington Court, London","51.4927, -0.2339",51.50200719999999,-0.1866267
Bluebird,"51.4847353, -0.1755033",ChIJuW4AjG8FdkgRDb_vqbTS508,"['cafe', 'night_club', 'bar', 'restaurant', 'food', 'point_of_interest', 'establishment']",4.2,3101,"350 King's Road, London","51.4927, -0.2339",51.4847353,-0.1755033
Serpentine Gallery,"51.50462700000001, -0.175073",ChIJOQxY9E8FdkgRe1P4OVUdwM8,"['art_gallery', 'tourist_attraction', 'cafe', 'museum', 'food', 'point_of_interest', 'establishment']",4.4,1635,London,"51.4927, -0.2339",51.50462700000001,-0.175073
The Orangery Restaurant,"51.5065855, -0.1877335",ChIJ7w-V58oNdkgRMcz9MMtot9Q,"['restaurant', 'cafe', 'food', 'point_of_interest', 'establishment']",3.9,499,"Kensington Palace Gardens, London","51.4927, -0.2339",51.5065855,-0.1877335
"Dukes Meadows Golf, Tennis & Ski","51.472398, -0.2634714",ChIJ57ACrWEOdkgRajz4Kz-BExA,"['cafe', 'store', 'food', 'point_of_interest', 'establishment']",4.3,730,"Dan Mason Drive, London","51.4927, -0.2339",51.472398,-0.2634714
La Piccola Deli Pasticceria,"51.4986294, -0.2008059",ChIJg-N64-0PdkgRT1mKgT3DLs0,"['cafe', 'bakery', 'store', 'restaurant', 'food', 'point_of_interest', 'establishment']",4.6,561,"La Piccola Deli Pasticceria, 270 Kensington High Street, London","51.4927, -0.2339",51.4986294,-0.2008059
The Hummingbird Bakery,"51.5140807, -0.2038636",ChIJFaENbuIPdkgRpLxw62U-cws,"['bakery', 'cafe', 'store', 'food', 'point_of_interest', 'establishment']",4.1,297,"133 Portobello Road, London","51.4927, -0.2339",51.5140807,-0.2038636
Fulham Palace,"51.4707092, -0.2159675",ChIJd2HTbaAPdkgRzADh38gQpO0,"['museum', 'tourist_attraction', 'cafe', 'park', 'food', 'point_of_interest', 'establishment']",4.5,1685,"Bishop's Avenue, London","51.4927, -0.2339",51.4707092,-0.2159675
The Hummingbird Bakery - South Kensington,"51.4933004, -0.1754869",ChIJHeUXBWgFdkgR3eOA_V-hKEs,"['bakery', 'cafe', 'store', 'food', 'point_of_interest', 'establishment']",4.0,269,"47 Old Brompton Road, London","51.4927, -0.2339",51.4933004,-0.1754869
ODEON Luxe Putney,"51.4652107, -0.2142387",ChIJgUvfVQwPdkgRQHqiMvvlzBU,"['movie_theater', 'cafe', 'bar', 'store', 'food', 'point_of_interest', 'establishment']",4.4,1193,"26 Putney High Street, London","51.4927, -0.2339",51.4652107,-0.2142387
Betty Blythe,"51.497602, -0.2175909",ChIJoUqLysYPdkgRMhFRzLdSSsk,"['cafe', 'food', 'point_of_interest', 'establishment']",4.2,170,"73 Blythe Road, London","51.4927, -0.2339",51.497602,-0.2175909
Coco Momo,"51.4981216, -0.1835399",ChIJrWezwF4FdkgR5k5LjWXMp8Q,"['cafe', 'bar', 'restaurant', 'food', 'point_of_interest', 'establishment']",4.3,1028,"25 Gloucester Road, South Kensington, London","51.4927, -0.2339",51.4981216,-0.1835399
The Magic Cafe,"51.47506300000001, -0.21423",ChIJvcNu_6APdkgRk8rzNDb_oVk,"['cafe', 'store', 'food', 'point_of_interest', 'establishment']",4.4,54,"359 Fulham Palace Road, London","51.4927, -0.2339",51.47506300000001,-0.21423
Le Pain Quotidien,"51.4950084, -0.1736302",ChIJ7bOFjEIFdkgRwCbRqdYFfEY,"['restaurant', 'cafe', 'bakery', 'store', 'food', 'point_of_interest', 'establishment']",3.9,1783,"15-17 Exhibition Road, London","51.4927, -0.2339",51.4950084,-0.1736302
The Prince Edward,"51.5129205, -0.1935085",ChIJXdGdcP4PdkgRwdBqUcXiqro,"['restaurant', 'cafe', 'bar', 'food', 'point_of_interest', 'establishment']",4.3,915,"73 Prince's Square, London","51.4927, -0.2339",51.5129205,-0.1935085
Putney Leisure Centre,"51.46365619999999, -0.2286599",ChIJyV5LXgMPdkgRl5Kl8sVW7BQ,"['cafe', 'gym', 'school', 'health', 'food', 'point_of_interest', 'establishment']",3.7,723,"Dryburgh Road, London","51.4927, -0.2339",51.46365619999999,-0.2286599
Caffè Concerto Kensington,"51.5018036, -0.191723",ChIJgwQn4PYPdkgRVZlJuahYFpE,"['cafe', 'bakery', 'store', 'restaurant', 'food', 'point_of_interest', 'establishment']",4.1,1993,"88 Kensington High Street, London","51.4927, -0.2339",51.5018036,-0.191723
Stonebridge Lock Waterside Cafe,"51.5976247, -0.0502964",ChIJF3oCXCocdkgRRNnfZq9libc,"['cafe', 'food', 'point_of_interest', 'establishment']",4.7,285,"Watermead Way, London","51.6, -0.1119",51.5976247,-0.0502964
Autograf Restaurant,"51.58778710000001, -0.099087",ChIJ8cOgRfcbdkgRvjVdEdKoYFM,"['cafe', 'meal_delivery', 'meal_takeaway', 'restaurant', 'food', 'point_of_interest', 'establishment']",4.5,943,"488 West Green Road, Duckett's Green, London","51.6, -0.1119",51.58778710000001,-0.099087
Park Theatre,"51.5657146, -0.1085131",ChIJqaky95obdkgRrAYqOEJqzFY,"['cafe', 'bar', 'food', 'point_of_interest', 'establishment']",4.6,1183,"13 Clifton Terrace, London","51.6, -0.1119",51.5657146,-0.1085131
Costa Coffee,"51.57886, -0.12408",ChIJhZfaTscbdkgRlZdqVCiPY4Q,"['cafe', 'store', 'food', 'point_of_interest', 'establishment']",4.0,295,"1 The Broadway, London","51.6, -0.1119",51.57886,-0.12408
Costa Coffee,"51.57106, -0.14809",ChIJZ20dkU4adkgRWapJzD0CpC0,"['cafe', 'store', 'food', 'point_of_interest', 'establishment']",4.2,202,"66 Highgate High Street, London","51.6, -0.1119",51.57106,-0.14809
Asda Living Tottenham,"51.5872527, -0.06118089999999998",ChIJhSaewjocdkgRySLQiP1aBoI,"['home_goods_store', 'cafe', 'clothing_store', 'store', 'food', 'point_of_interest', 'establishment']",4.1,2071,"Unit 4a, Tottenham Hale Retail Park, Broad Lane, London","51.6, -0.1119",51.5872527,-0.0611808999999999
The Haberdashery,"51.5812225, -0.1235522",ChIJDW4aLcEbdkgRXponAUDais8,"['cafe', 'store', 'restaurant', 'food', 'point_of_interest', 'establishment']",4.5,490,"22 Middle Lane, London","51.6, -0.1119",51.5812225,-0.1235522
ArtHouse Crouch End,"51.5818634, -0.12003",ChIJESKOosEbdkgRwqRUxCUwp4o,"['movie_theater', 'cafe', 'food', 'point_of_interest', 'establishment']",4.6,528,"159A Tottenham Lane, London","51.6, -0.1119",51.5818634,-0.12003
Aladdin's Vintage Furniture & Cafe,"51.5695455, -0.1243871",ChIJW7rCb7sbdkgRr9FVKm8aJ1o,"['cafe', 'moving_company', 'storage', 'furniture_store', 'home_goods_store', 'store', 'food', 'point_of_interest', 'establishment']",4.6,101,"1 Hazellville Road, London","51.6, -0.1119",51.5695455,-0.1243871
The Archway Tavern,"51.5659627, -0.1349262",ChIJvZQfDrIbdkgROCFmyEkSgcs,"['cafe', 'bar', 'food', 'point_of_interest', 'establishment']",4.2,342,"1 Navigator Square, Archway, London","51.6, -0.1119",51.5659627,-0.1349262
Costa Coffee,"51.58758400000001, -0.063354",ChIJhSaewjocdkgRNporYICF_YI,"['cafe', 'store', 'food', 'point_of_interest', 'establishment']",3.9,1152,"Unit E, Tottenham Hale Retail Park, London","51.6, -0.1119",51.58758400000001,-0.063354
Costa Coffee,"51.576439, -0.097673",ChIJHWbkG4sbdkgRJaxwruoRUXA,"['cafe', 'store', 'food', 'point_of_interest', 'establishment']",3.7,328,"Unit 4C, The Arena Shopping Pa, London","51.6, -0.1119",51.576439,-0.097673
Jenny's Cafe & Restaurant N10,"51.5915429, -0.1430246",ChIJpxBC5ywadkgRw8MU5BO1l2A,"['cafe', 'restaurant', 'food', 'point_of_interest', 'establishment']",4.1,441,"237 Muswell Hill Broadway, London","51.6, -0.1119",51.5915429,-0.1430246
Barista Coffee House,"51.6136876, -0.2755771999999999",ChIJof-nbqQWdkgR3ockSIdXzr0,"['cafe', 'food', 'point_of_interest', 'store', 'establishment']",4.5,54,"5, Station Forecourt, Station Road, London, Edgware","51.5898, -0.3346",51.6136876,-0.2755771999999999
Costa Coffee,"51.578639, -0.399112",ChIJ53t0mb9sdkgRp7SGGS3tOsY,"['cafe', 'food', 'point_of_interest', 'store', 'establishment']",4.2,251,"153 Field End Road, Pinner","51.5898, -0.3346",51.578639,-0.399112
Caffè Nero,"51.61307679999999, -0.2772073",ChIJJ44YTaQWdkgRQ_deYMHXeUQ,"['cafe', 'restaurant', 'food', 'point_of_interest', 'store', 'establishment']",3.9,410,"Unit 2, 67-70 Station Road, Edgware","51.5898, -0.3346",51.61307679999999,-0.2772073
Costa Coffee,"51.5641, -0.354526",ChIJ6UsHgRgTdkgRvYUNfn72MZw,"['cafe', 'food', 'point_of_interest', 'store', 'establishment']",4.1,498,"250 / 252 Northolt Road, South Harrow, Harrow","51.5898, -0.3346",51.5641,-0.354526
Imperial Cafe,"51.5761555, -0.3702117",ChIJHQEYQDYTdkgR2fNinSsxSFg,"['cafe', 'restaurant', 'food', 'point_of_interest', 'store', 'establishment']",4.7,306,"238 Imperial Drive, Harrow","51.5898, -0.3346",51.5761555,-0.3702117
Sunrise Cafe,"51.6039171, -0.339743",ChIJw_AmgIQUdkgRbS0bnwObugI,"['cafe', 'food', 'point_of_interest', 'store', 'establishment']",4.4,123,"343 High Road, Harrow","51.5898, -0.3346",51.6039171,-0.339743
Randalls Coffee House,"51.58203409999999, -0.3324514",ChIJEb3fyHUTdkgRru5BOZ-fzxE,"['cafe', 'food', 'point_of_interest', 'store', 'establishment']",4.2,90,"284B Station Road, Harrow","51.5898, -0.3346",51.58203409999999,-0.3324514
Costa,"51.6172742, -0.3120828",ChIJL7uLNGoUdkgR_Y7QrZ05W2w,"['cafe', 'food', 'point_of_interest', 'store', 'establishment']",4.1,302,"24-26 Church Road, Stanmore","51.5898, -0.3346",51.6172742,-0.3120828
Costa Coffee,"51.58589, -0.33413",ChIJP1sxBXcTdkgR3zMPAQDRXFY,"['cafe', 'food', 'point_of_interest', 'store', 'establishment']",3.8,26,"2, Tesco, Harrow","51.5898, -0.3346",51.58589,-0.33413
Red Brick Cafe,"51.5943109, -0.3348485",ChIJtwIAx34TdkgRIlU3RY1q7i4,"['cafe', 'food', 'point_of_interest', 'store', 'establishment']",4.4,49,"38-40 High Street, Harrow","51.5898, -0.3346",51.5943109,-0.3348485
Rumble Tumble Harrow Ltd,"51.5850435, -0.3310073",ChIJSZY6MHYTdkgR1nA_C05AU5A,"['cafe', 'school', 'food', 'point_of_interest', 'establishment']",4.0,372,"Ground Floor, Bruce House, Lower, Sovereign Place, Harrow","51.5898, -0.3346",51.5850435,-0.3310073
Costa Coffee,"51.5966, -0.335204",ChIJ0dRcZn4TdkgRvQUUjxDBeLo,"['cafe', 'food', 'point_of_interest', 'store', 'establishment']",4.2,410,"112-114, Wealdstone, High Street, Harrow","51.5898, -0.3346",51.5966,-0.335204
Costa Coffee,"51.58231, -0.3366599999999999",ChIJlSwg83MTdkgRNcjZRAj4ilY,"['cafe', 'food', 'point_of_interest', 'store', 'establishment']",4.2,653,"76-80 St Anns Road, Harrow","51.5898, -0.3346",51.58231,-0.3366599999999999
Mooboo,"51.5815078, -0.3393113",ChIJNfSRSnITdkgRLPAe0_vvYRw,"['cafe', 'food', 'point_of_interest', 'establishment']",4.4,180,"St Georges Shopping Centre St Ann's Road, Harrow","51.5898, -0.3346",51.5815078,-0.3393113
Bru coffee & more,"51.5799485, -0.3357646",ChIJ1a0KynMTdkgR51_pv8ybXmY,"['cafe', 'food', 'point_of_interest', 'store', 'establishment']",4.2,754,"Square 1, Bond Apartments, College Road, Harrow","51.5898, -0.3346",51.5799485,-0.3357646
Treats,"51.58003069999999, -0.3374615",ChIJKV6mKYQUdkgRpl3AQ2r-qWE,"['cafe', 'food', 'point_of_interest', 'store', 'establishment']",3.9,18,"College Road, Harrow","51.5898, -0.3346",51.58003069999999,-0.3374615
Caffè Nero,"51.579555, -0.3368828",ChIJqbvQenMTdkgR1RYQZUPWxDs,"['cafe', 'food', 'point_of_interest', 'store', 'establishment']",4.1,70,"on the Hill Station, Station Approach, Harrow","51.5898, -0.3346",51.579555,-0.3368828
The Moat Cafe,"51.59404749999999, -0.354366",ChIJTcQqA14TdkgR2y94J8Jdags,"['cafe', 'food', 'point_of_interest', 'establishment']",4.0,108,"Pinner View, Harrow","51.5898, -0.3346",51.59404749999999,-0.354366
Costa Coffee,"51.60069999999999, -0.3180999999999999",ChIJq-MwhXcUdkgREpdV1LOH4AI,"['cafe', 'food', 'point_of_interest', 'store', 'establishment']",4.4,330,"8 Warwick Parade Kenton Lane, Harrow","51.5898, -0.3346",51.60069999999999,-0.3180999999999999
Costa Coffee,"51.5936, 0.21781",ChIJO7T_mma72EcRVfw9R8LmPiU,"['cafe', 'store', 'food', 'point_of_interest', 'establishment']",4.0,136,"Bryant Avenue, Romford","51.5812, 0.1837",51.5936,0.21781
Cosy Cafe,"51.5841228, 0.22022",ChIJtzrxkW672EcRLBgsFRhqyLw,"['cafe', 'food', 'point_of_interest', 'establishment']",4.5,198,"197 Ardleigh Green Road, Hornchurch","51.5812, 0.1837",51.5841228,0.22022
Shell,"51.59127179999999, 0.1790432",ChIJo_iAdLuk2EcRCUZeYLzS1z0,"['gas_station', 'car_wash', 'convenience_store', 'meal_delivery', 'cafe', 'store', 'restaurant', 'food', 'point_of_interest', 'establishment']",3.8,82,"Eastern Avenue East, Romford","51.5812, 0.1837",51.59127179999999,0.1790432
Costa Coffee,"51.586734, 0.200045",ChIJS-tWYEW72EcRlCS0F1vh7OM,"['cafe', 'store', 'food', 'point_of_interest', 'establishment']",4.1,207,"83 Main Road, Romford","51.5812, 0.1837",51.586734,0.200045
bp,"51.5650117, 0.2036263",ChIJjXg--SS72EcR1hawT9fDZog,"['gas_station', 'car_wash', 'atm', 'cafe', 'finance', 'food', 'point_of_interest', 'establishment']",4.5,12,"132 Hornchurch Road, Hornchurch","51.5812, 0.1837",51.5650117,0.2036263
Costa Coffee,"51.592862, 0.215658",ChIJx5DP3Wa72EcRhIJoa6pMa0k,"['cafe', 'store', 'food', 'point_of_interest', 'establishment']",3.9,109,"NEXT, Gallows Corner, Gallows Corner Retail Park, Colchester Road, Romford","51.5812, 0.1837",51.592862,0.215658
ODEON Uxbridge,"51.5450527, -0.4756154",ChIJcZ1xXg5udkgRleINWx2c0Ls,"['movie_theater', 'cafe', 'store', 'food', 'point_of_interest', 'establishment']",4.1,2447,"302, The chimes shopping centre, Uxbridge","51.5441, -0.476",51.5450527,-0.4756154
"The Black Horse Pub & Restaurant, Iver Heath","51.5373325, -0.5156964999999999",ChIJg_sqUEpudkgRoj4B-RQNBms,"['cafe', 'bar', 'restaurant', 'food', 'point_of_interest', 'establishment']",4.2,729,"95 Slough Road, Iver","51.5441, -0.476",51.5373325,-0.5156964999999999
Costa Coffee,"51.57409999999999, -0.424681",ChIJp9CQhfVsdkgRmaAQGUbcA7w,"['cafe', 'store', 'food', 'point_of_interest', 'establishment']",3.9,382,"100 - 102 High Street, Ruislip","51.5441, -0.476",51.57409999999999,-0.424681
Costa Coffee,"51.547418, -0.48107",ChIJJaoEb3pudkgRMABG9GQ5kn4,"['cafe', 'store', 'food', 'point_of_interest', 'establishment']",4.1,976,"51-52 High Street, Uxbridge","51.5441, -0.476",51.547418,-0.48107
Pret A Manger,"51.5460697, -0.4808929",ChIJ-1GWDXpudkgRs8Xrtx6Lwuc,"['cafe', 'bakery', 'bar', 'store', 'restaurant', 'food', 'point_of_interest', 'health', 'establishment']",4.1,291,"The Pavilions Shopping Centre, Grainge's Yard, Uxbridge","51.5441, -0.476",51.5460697,-0.4808929
Village Bed & Breakfast and Cafe,"51.53536219999999, -0.4608473",ChIJK8ZpWd1tdkgRScRyhC96Hg4,"['cafe', 'lodging', 'food', 'point_of_interest', 'establishment']",4.0,3,"105 Hillingdon Hill, Uxbridge","51.5441, -0.476",51.53536219999999,-0.4608473
Greggs,"51.5467867, -0.4799914",ChIJfZzzhnpudkgRFbQ9D9qYhPM,"['bakery', 'cafe', 'store', 'restaurant', 'food', 'point_of_interest', 'establishment']",3.9,292,"148-152 High Street, Uxbridge","51.5441, -0.476",51.5467867,-0.4799914
Lady Marmalade Cafe,"51.52251219999999, -0.4812015000000001",ChIJBXKnEAVudkgR3MPhEMlnx1o,"['cafe', 'food', 'point_of_interest', 'establishment']",4.5,136,"30 High Street, Uxbridge","51.5441, -0.476",51.52251219999999,-0.4812015000000001
Caffè Nero,"51.545424, -0.4766446",ChIJzxUQVXdudkgRnqDgntTYtM0,"['cafe', 'store', 'food', 'point_of_interest', 'establishment']",4.2,622,"185-186, The chimes shopping centre, Uxbridge","51.5441, -0.476",51.545424,-0.4766446
Lavazza,"51.5449865, -0.4793672",ChIJDWBCsTgFdkgR_7fGtwNNq0c,"['cafe', 'food', 'point_of_interest', 'establishment']",2.0,47,"5th, The Charter Building, Vine Street, Uxbridge","51.5441, -0.476",51.5449865,-0.4793672
Starbucks Coffee,"51.545742, -0.478584",ChIJXcfJB3pudkgR1lfkcra0TZQ,"['cafe', 'store', 'restaurant', 'food', 'point_of_interest', 'establishment']",4.1,511,"High Street, Uxbridge","51.5441, -0.476",51.545742,-0.478584
LAB Coffee Works,"51.54548200000001, -0.47927",ChIJN9qAn3BudkgRTka33KJsfj4,"['cafe', 'store', 'food', 'point_of_interest', 'establishment']",4.6,34,"The Charter Building, Charter Place, Uxbridge","51.5441, -0.476",51.54548200000001,-0.47927
Costa Coffee,"51.546606, -0.4781420000000001",ChIJK6DoDnpudkgRHHq5mB7nrKc,"['cafe', 'store', 'food', 'point_of_interest', 'establishment']",4.3,355,"172 High Street, Uxbridge","51.5441, -0.476",51.546606,-0.4781420000000001
Creams Cafe Uxbridge,"51.54836719999999, -0.4778184000000001",ChIJnbBEf3ludkgRWgUXGzMapek,"['cafe', 'bakery', 'meal_takeaway', 'store', 'restaurant', 'food', 'point_of_interest', 'establishment']",4.0,955,"61 Belmont Road, Uxbridge","51.5441, -0.476",51.54836719999999,-0.4778184000000001
1966,"51.5328974, -0.4735067000000001",ChIJcUJY8gpudkgR2bPYVpUFRcM,"['cafe', 'store', 'food', 'point_of_interest', 'establishment']",4.2,267,"Brunel University London, Kingston Lane, Uxbridge","51.5441, -0.476",51.5328974,-0.4735067000000001
Bertram's Café,"51.5561294, -0.4913555000000001",ChIJCa3sCopudkgRB2vYszIXt6c,"['cafe', 'food', 'point_of_interest', 'establishment']",4.2,155,"95 Oxford Road, Denham, Uxbridge","51.5441, -0.476",51.5561294,-0.4913555000000001
Maison Du Soleil,"51.56463220000001, -0.4453297",ChIJn5uc-UhsdkgRGzNgUfaIvFE,"['cafe', 'store', 'food', 'point_of_interest', 'establishment']",4.5,161,"25 Swakeleys Road, Ickenham, Uxbridge","51.5441, -0.476",51.56463220000001,-0.4453297
Costa Coffee,"51.515678, -0.477281",ChIJJfssBv5xdkgRReEA_w0-7Mc,"['cafe', 'store', 'food', 'point_of_interest', 'establishment']",4.2,79,"Trout Road, West Drayton","51.5441, -0.476",51.515678,-0.477281
bp,"51.56826520000001, -0.5047423000000001",ChIJ9XoVG_NudkgRWGCIpGKi3SE,"['gas_station', 'atm', 'convenience_store', 'cafe', 'finance', 'store', 'food', 'point_of_interest', 'establishment']",3.5,31,"Oxford Road, Uxbridge","51.5441, -0.476",51.56826520000001,-0.5047423000000001
Costa Coffee,"51.5201824, -0.505983",ChIJc54p6iVudkgRebP0u-P6WVs,"['cafe', 'store', 'food', 'point_of_interest', 'establishment']",4.4,109,"High Street, Iver","51.5441, -0.476",51.5201824,-0.505983
Curzon Richmond,"51.4592363, -0.3070303999999999",ChIJDeGlH2IMdkgRgNY8wJ-NeTM,"['movie_theater', 'cafe', 'bar', 'food', 'point_of_interest', 'establishment']",4.5,264,"3 Water Lane, Richmond","51.4746, -0.368",51.4592363,-0.3070303999999999
The Eel Pie,"51.4469808, -0.3265452",ChIJhz8jkGEMdkgRRK1tAA-1yOA,"['restaurant', 'cafe', 'bar', 'food', 'point_of_interest', 'establishment']",4.5,978,"9-11 Church Street, Twickenham","51.4746, -0.368",51.4469808,-0.3265452
Asda Feltham Superstore,"51.4467163, -0.4118487",ChIJIyBNH3JzdkgRtdilh0Fe_xI,"['supermarket', 'cafe', 'pharmacy', 'grocery_or_supermarket', 'clothing_store', 'store', 'health', 'food', 'point_of_interest', 'establishment']",4.1,4080,"Tilley Road, Feltham","51.4746, -0.368",51.4467163,-0.4118487
Costa Coffee,"51.4464, -0.410527",ChIJlcba-W1zdkgRysRbaek6rp8,"['cafe', 'store', 'food', 'point_of_interest', 'establishment']",4.2,315,"36 The Centre, Feltham","51.4746, -0.368",51.4464,-0.410527
Mount Cafe,"51.4402074, -0.3869331999999999",ChIJAQ6ZGlBzdkgR88N2lQidhck,"['cafe', 'food', 'point_of_interest', 'establishment']",4.2,133,"Market Parade, 11 Hampton Road West, Hanworth, Feltham","51.4746, -0.368",51.4402074,-0.3869331999999999
Squire’s Garden Centre,"51.4354405, -0.3518239",ChIJraSTrJgMdkgRPzOxp3F9wLo,"['cafe', 'pet_store', 'store', 'food', 'point_of_interest', 'establishment']",4.4,2127,"Sixth Cross Road, Twickenham","51.4746, -0.368",51.4354405,-0.3518239
Bill's Richmond Restaurant,"51.4580509, -0.3054919",ChIJy24lXkcMdkgR5EaQGFhx3po,"['cafe', 'restaurant', 'food', 'point_of_interest', 'establishment']",4.5,2188,"1-3 Hill Rise, Richmond","51.4746, -0.368",51.4580509,-0.3054919
Costa Coffee,"51.46842, -0.3637400000000001",ChIJdbtF4dkMdkgR3JlywZP43Hg,"['cafe', 'store', 'food', 'point_of_interest', 'establishment']",4.2,1151,"241 High Street, Hounslow","51.4746, -0.368",51.46842,-0.3637400000000001
Caffe Mamma,"51.4664059, -0.2974021000000001",ChIJZa9lbjEMdkgRd71BEgGhKEw,"['cafe', 'meal_takeaway', 'restaurant', 'food', 'point_of_interest', 'establishment']",4.4,436,"110 Kew Road, Richmond","51.4746, -0.368",51.4664059,-0.2974021000000001
Costa Coffee,"51.447705, -0.328678",ChIJK9F0eYoMdkgR30Vz1AA4D2Y,"['cafe', 'store', 'food', 'point_of_interest', 'establishment']",4.1,349,"26-28 London Road, Twickenham","51.4746, -0.368",51.447705,-0.328678
Islamic Integration Community Centre,"51.46276229999999, -0.389633",ChIJexbCOCVzdkgR0KPxg8i0u8I,"['mosque', 'cafe', 'place_of_worship', 'store', 'health', 'food', 'point_of_interest', 'establishment']",4.8,187,"531 Staines Road, Hounslow","51.4746, -0.368",51.46276229999999,-0.389633
The Coffee Bean,"51.4519645, -0.3577604",ChIJReUUrsAMdkgRy-_TDOsfKZE,"['cafe', 'store', 'food', 'point_of_interest', 'establishment']",4.8,53,"37B High Street, Twickenham","51.4746, -0.368",51.4519645,-0.3577604
Coffee And Muffins,"51.46784390000001, -0.3629304",ChIJ2btVjdkMdkgRVe6MdK9UUpo,"['cafe', 'store', 'food', 'point_of_interest', 'establishment']",2.7,15,"High Street, Hounslow","51.4746, -0.368",51.46784390000001,-0.3629304
Jungle VIP,"51.4706512, -0.3630229",ChIJcd-RO9gMdkgReyZaDPADGx0,"['cafe', 'store', 'restaurant', 'food', 'point_of_interest', 'establishment']",4.2,497,"Unit 5, The Blenheim Centre, Prince Regent Road, Hounslow","51.4746, -0.368",51.4706512,-0.3630229
Wild Bean Cafe,"51.4788863, -0.3617814",ChIJPeDduCUNdkgRREAcTxsMsR4,"['cafe', 'convenience_store', 'store', 'food', 'point_of_interest', 'establishment']",2.0,1,"481 Great West Road, Hounslow","51.4746, -0.368",51.4788863,-0.3617814
bp,"51.47901999999999, -0.36188",ChIJSXqTtSUNdkgRIPQyHfxVsq4,"['gas_station', 'cafe', 'convenience_store', 'store', 'food', 'point_of_interest', 'establishment']",3.3,37,"481 Great West Road, Hounslow","51.4746, -0.368",51.47901999999999,-0.36188
Caffè Nero,"51.46853489999999, -0.3631513",ChIJLxfBwdkMdkgR2SMvOaKSdQ0,"['cafe', 'store', 'food', 'point_of_interest', 'establishment']",4.2,1154,"231 High Street, Hounslow","51.4746, -0.368",51.46853489999999,-0.3631513
Curzon Bloomsbury,"51.5241103, -0.1231058",ChIJxePkNjcbdkgRiaZ0HLGdLAI,"['movie_theater', 'cafe', 'bar', 'point_of_interest', 'food', 'establishment']",4.4,992,"The Brunswick Centre, London","51.5416, -0.1022",51.5241103,-0.1231058
The Breakfast Club Soho,"51.51474080000001, -0.135402",ChIJX_OPq9QEdkgRwIpAEYl2RYc,"['cafe', 'restaurant', 'point_of_interest', 'food', 'establishment']",4.2,3365,"33 D'Arblay Street, London","51.5416, -0.1022",51.51474080000001,-0.135402
Scandinavian Kitchen,"51.5187857, -0.1408642",ChIJ3Zw-dSobdkgRZTBgHJ61V9g,"['cafe', 'grocery_or_supermarket', 'store', 'restaurant', 'point_of_interest', 'food', 'establishment']",4.6,1814,"61 Great Titchfield Street, London","51.5416, -0.1022",51.5187857,-0.1408642
Alfies Antique Market,"51.5241255, -0.1688334",ChIJqbxNFbcadkgRI0eOwkhzl4U,"['cafe', 'furniture_store', 'jewelry_store', 'clothing_store', 'home_goods_store', 'food', 'point_of_interest', 'store', 'establishment']",4.3,504,"13 - 25 Church Street, London","51.502, -0.1947",51.5241255,-0.1688334
Curzon Mayfair,"51.5065673, -0.1479457",ChIJlXAEIy8FdkgR1qaSOxyAsfc,"['movie_theater', 'cafe', 'restaurant', 'food', 'bar', 'point_of_interest', 'establishment']",4.5,753,"38 Curzon Street, London","51.502, -0.1947",51.5065673,-0.1479457
Brasserie Zédel,"51.5105561, -0.1355974",ChIJl-cjD9QEdkgRVkkQt3pySRI,"['cafe', 'restaurant', 'food', 'bar', 'point_of_interest', 'establishment']",4.5,8160,"20 Sherwood Street, London","51.502, -0.1947",51.5105561,-0.1355974
Wetherspoons (Victoria Station),"51.49507699999999, -0.1443459",ChIJxW_IVx8FdkgRLXS07Ynr9Fs,"['cafe', 'food', 'bar', 'point_of_interest', 'establishment']",3.8,5065,"Unit 5 (1st Floor above WHSmith), Victoria Station Concourse, London","51.502, -0.1947",51.49507699999999,-0.1443459
bp,"51.401305, -0.3433674",ChIJmfQxphELdkgRVxfijNcRlEA,"['gas_station', 'convenience_store', 'atm', 'cafe', 'finance', 'store', 'food', 'point_of_interest', 'establishment']",3.2,32,"Hampton Court Way, East Molesey","51.4085, -0.3064",51.401305,-0.3433674
ODEON Kingston,"51.41171809999999, -0.299275",ChIJwaMnL-oLdkgRR32ke4DYqsY,"['movie_theater', 'cafe', 'bar', 'store', 'food', 'point_of_interest', 'establishment']",4.2,2851,"The Rotunda, Clarence Street, Kingston upon Thames","51.4085, -0.3064",51.41171809999999,-0.299275
Pembroke Lodge,"51.4424628, -0.294509",ChIJX1uebBAMdkgRsXwRE25msQs,"['cafe', 'store', 'restaurant', 'food', 'point_of_interest', 'establishment']",4.6,2562,"Richmond Park, Richmond","51.4085, -0.3064",51.4424628,-0.294509
River Cafe,"51.4098927, -0.2889544000000001",ChIJScVgYecLdkgRzSPo-HVqwV4,"['cafe', 'food', 'point_of_interest', 'establishment']",4.2,34,"35 Cambridge Road, Kingston upon Thames","51.4085, -0.3064",51.4098927,-0.2889544000000001
Costa Coffee,"51.4001312, -0.2558116",ChIJZx616hIJdkgR5gQTSBM6mWo,"['cafe', 'store', 'food', 'point_of_interest', 'establishment']",3.9,361,"123 High Street, New Malden","51.4085, -0.3064",51.4001312,-0.2558116
YMCA Hawker,"51.42685909999999, -0.3091662",ChIJj456rvILdkgRcr0W8L74hn8,"['gym', 'cafe', 'health', 'food', 'point_of_interest', 'establishment']",3.8,92,"Lower Ham Road, Kingston upon Thames","51.4085, -0.3064",51.42685909999999,-0.3091662
The Terrace Eatery,"51.4092498, -0.3058121",ChIJAdrq478LdkgRerhcTjVIrIo,"['cafe', 'meal_takeaway', 'restaurant', 'food', 'point_of_interest', 'establishment']",3.9,556,"6A, Food for Thought, 7 apple Market, Kingston upon Thames","51.4085, -0.3064",51.4092498,-0.3058121
World of Golf London,"51.4042459, -0.2430694",ChIJw-SyDxsJdkgRMzCkeW9RHGg,"['cafe', 'store', 'food', 'point_of_interest', 'establishment']",4.4,1316,"Beverley Way, New Malden","51.4085, -0.3064",51.4042459,-0.2430694
Starbucks Coffee,"51.41184, -0.3056459",ChIJb_OuX-oLdkgRmvJjGLRW-2Q,"['cafe', 'store', 'restaurant', 'food', 'point_of_interest', 'establishment']",4.0,451,"The Bentall Centre, Wood Street, Kingston upon Thames","51.4085, -0.3064",51.41184,-0.3056459
Costa Coffee,"51.4261212, -0.3370183",ChIJu9e7Y3wLdkgRqxYAXFKD0tg,"['cafe', 'store', 'food', 'point_of_interest', 'establishment']",4.0,236,"59-67 Broad Street, Teddington","51.4085, -0.3064",51.4261212,-0.3370183
Costa Coffee,"51.39247999999999, -0.306664",ChIJHUdSt7ULdkgRujs7vmkfVZs,"['cafe', 'store', 'food', 'point_of_interest', 'establishment']",4.0,273,"27 Victoria Road, Surbiton","51.4085, -0.3064",51.39247999999999,-0.306664
Bubbles Shisha Cafe,"51.40130779999999, -0.3041792",ChIJmboKhccLdkgR4_UzGfWMq8w,"['cafe', 'restaurant', 'food', 'point_of_interest', 'establishment']",4.2,310,"60 Surbiton Road, Kingston upon Thames","51.4085, -0.3064",51.40130779999999,-0.3041792
Costa Coffee,"51.41198499999999, -0.3044009999999999",ChIJUdDfA-sLdkgR7RDoiKioli8,"['cafe', 'store', 'food', 'point_of_interest', 'establishment']",4.1,373,"Unit L15, The Bentall Centre, Wood Street, Kingston upon Thames","51.4085, -0.3064",51.41198499999999,-0.3044009999999999
Pickled Pantry,"51.3935299, -0.3030871000000001",ChIJH4BwHMoLdkgRyKWWt7kxcdE,"['cafe', 'store', 'restaurant', 'food', 'point_of_interest', 'establishment']",4.6,362,"7 Saint Mark's Hill, Surbiton","51.4085, -0.3064",51.3935299,-0.3030871000000001
Boho Cafe ( Kings Road ),"51.418644, -0.296785",ChIJeY14SO4LdkgRQOpoT83ivcg,"['cafe', 'store', 'food', 'point_of_interest', 'establishment']",4.5,153,"159A King's Road, Kingston upon Thames","51.4085, -0.3064",51.418644,-0.296785
Hampton Pool,"51.41846719999999, -0.3579816999999999",ChIJMWGXhkQLdkgR-rzhWT3866Y,"['gym', 'cafe', 'health', 'spa', 'food', 'point_of_interest', 'establishment']",4.4,771,"High Street, Hampton","51.4085, -0.3064",51.41846719999999,-0.3579816999999999
La Fontana Cafe Deli Thames Ditton,"51.39107079999999, -0.3324529",ChIJmUcZoAELdkgRRMKnPGSxXcQ,"['cafe', 'store', 'food', 'point_of_interest', 'establishment']",4.8,113,"53 High Street, Thames Ditton","51.4085, -0.3064",51.39107079999999,-0.3324529
Beanberry Coffee Company,"51.4116781, -0.3029431",ChIJ0xSX3hXYdUgRFlHiO1IVEgY,"['cafe', 'store', 'food', 'point_of_interest', 'establishment']",4.6,601,"30B Fife Road, Kingston upon Thames","51.4085, -0.3064",51.4116781,-0.3029431
St John's Smith Square,"51.4959978, -0.1270108",ChIJHT2Z5sIEdkgRjrJZLxTQEeE,"['cafe', 'food', 'point_of_interest', 'establishment']",4.5,723,"Smith Square, London","51.4607, -0.1163",51.4959978,-0.1270108
Asda Clapham Junction Superstore,"51.465371, -0.164962",ChIJ85Nej5gFdkgRrF88JT4V55w,"['supermarket', 'atm', 'cafe', 'grocery_or_supermarket', 'clothing_store', 'finance', 'store', 'food', 'point_of_interest', 'establishment']",3.8,1048,"204 Lavender Hill, London","51.4607, -0.1163",51.465371,-0.164962
St Stephen's Tavern,"51.5011626, -0.1256042",ChIJZSfzRMQEdkgRKp5LnanZ2KM,"['restaurant', 'cafe', 'bar', 'food', 'point_of_interest', 'establishment']",4.1,4009,"10 Bridge Street, London","51.4607, -0.1163",51.5011626,-0.1256042
ODEON Streatham,"51.4321656, -0.1286103",ChIJg4Yu3icEdkgRMNxJdQaYbq4,"['movie_theater', 'cafe', 'store', 'food', 'point_of_interest', 'establishment']",3.8,2299,"47-49 High Road, London","51.4607, -0.1163",51.4321656,-0.1286103
Dulwich Picture Gallery,"51.44606219999999, -0.08632889999999999",ChIJE_hdXfEDdkgR09Yvt9rEzmI,"['art_gallery', 'tourist_attraction', 'cafe', 'museum', 'park', 'store', 'food', 'point_of_interest', 'establishment']",4.5,466,London,"51.4607, -0.1163",51.44606219999999,-0.0863288999999999
Dogstar,"51.46172189999999, -0.1118848",ChIJ9xwiu2gEdkgRQdTDjYN8JJA,"['cafe', 'night_club', 'bar', 'food', 'point_of_interest', 'establishment']",3.8,867,"389 Coldharbour Lane, London","51.4607, -0.1163",51.46172189999999,-0.1118848
Cubana Restaurant Waterloo,"51.5015329, -0.1108987",ChIJGyPR07sEdkgRN3s3cjSLW6M,"['cafe', 'bar', 'restaurant', 'food', 'point_of_interest', 'establishment']",4.4,6202,"48 Lower Marsh, London","51.4607, -0.1163",51.5015329,-0.1108987
Morleys Brixton,"51.46257139999999, -0.1153399",ChIJAftwdWgEdkgRDPYnGF3s9f4,"['department_store', 'cafe', 'clothing_store', 'home_goods_store', 'store', 'food', 'point_of_interest', 'establishment']",4.1,1044,"472-488 Brixton Road, London","51.4607, -0.1163",51.46257139999999,-0.1153399
The Lido Cafe (Now 400 Rabbits),"51.4532779, -0.1060916",ChIJN51raG0EdkgROK3vBjuxJck,"['cafe', 'bar', 'store', 'restaurant', 'food', 'point_of_interest', 'establishment']",3.6,232,"the lido cafe, Dulwich Road, London","51.4607, -0.1163",51.4532779,-0.1060916
Tooting Bec Lido,"51.4318299, -0.1391134",ChIJDwXOmSoEdkgREfR5pN08ZQQ,"['tourist_attraction', 'cafe', 'food', 'point_of_interest', 'establishment']",4.4,1037,"Tooting Bec Road, London","51.4607, -0.1163",51.4318299,-0.1391134
Tea House Theatre,"51.488156, -0.120666",ChIJax3jfOwEdkgR3RsIaxaC1jY,"['cafe', 'food', 'point_of_interest', 'establishment']",4.1,1008,"139 Vauxhall Walk, London","51.4607, -0.1163",51.488156,-0.120666
Starbucks Coffee,"51.50201789999999, -0.1176771",ChIJbd6czrkEdkgRKdoEMZIkaew,"['cafe', 'store', 'restaurant', 'food', 'point_of_interest', 'establishment']",3.8,1248,"Belvedere Road, London","51.4607, -0.1163",51.50201789999999,-0.1176771
Dulwich Leisure Centre,"51.46062200000001, -0.07158070000000001",ChIJDXtKlpcDdkgRF_OPuRrt-Ck,"['gym', 'cafe', 'school', 'health', 'food', 'point_of_interest', 'establishment']",3.9,320,"2B Crystal Palace Road, London","51.4607, -0.1163",51.46062200000001,-0.0715807
Daylesford Organic,"51.4906755, -0.1535149",ChIJX92EbRcFdkgRPU6CXdRjnVs,"['cafe', 'grocery_or_supermarket', 'meal_takeaway', 'store', 'restaurant', 'food', 'point_of_interest', 'establishment']",4.1,587,"44B Pimlico Road, London","51.4607, -0.1163",51.4906755,-0.1535149
Patisserie Valerie - Victoria,"51.4935156, -0.1412834",ChIJSdA7-h8FdkgR9nTOVJDTqZk,"['cafe', 'bakery', 'store', 'restaurant', 'food', 'point_of_interest', 'establishment']",4.0,361,"55 Wilton Road, London","51.4607, -0.1163",51.4935156,-0.1412834
The CLF Art Cafe,"51.46983109999999, -0.0681801",ChIJw5JOrqEDdkgR8jrY7ozawT4,"['night_club', 'cafe', 'food', 'point_of_interest', 'establishment']",4.2,136,"Block A, Bussey Building, 133 Rye Lane, London","51.4452, -0.0209",51.46983109999999,-0.0681801
Ellary's,"51.4637915, -0.0356064",ChIJK-v5lloCdkgRMVYl1g_Y4qc,"['restaurant', 'bar', 'cafe', 'food', 'point_of_interest', 'establishment']",4.4,571,"5 Harefield Road, London","51.4452, -0.0209",51.4637915,-0.0356064
Horniman Cafe,"51.4412058, -0.06137260000000001",ChIJSzwgydoDdkgRF5_0mPScfKI,"['cafe', 'restaurant', 'food', 'point_of_interest', 'establishment']",4.0,418,"100 London Road, London","51.4452, -0.0209",51.4412058,-0.0613726
Boulangerie Jade,"51.4665779, 0.008105199999999998",ChIJoz8ictGp2EcRb6INVGu4Go8,"['bakery', 'cafe', 'food', 'store', 'point_of_interest', 'establishment']",3.8,183,"44 Tranquil Vale, London","51.4452, -0.0209",51.4665779,0.0081051999999999
Pistachios in the Park,"51.4571691, 0.0050104",ChIJGcoXH9yp2EcRqUMWKcxcW4g,"['cafe', 'food', 'store', 'point_of_interest', 'establishment']",4.3,238,"Manor House Gardens, Old Road, London","51.4452, -0.0209",51.4571691,0.0050104
Café Crofton Park,"51.4544949, -0.03729200000000001",ChIJq0qaWEgCdkgRqtHnCUcxVcU,"['cafe', 'food', 'point_of_interest', 'establishment']",4.4,250,"397 Brockley Road, London","51.4452, -0.0209",51.4544949,-0.037292
kings cafe,"51.4255948, -0.0322499",ChIJ9UUVIYkBdkgRt0sHpEdJ4Qc,"['cafe', 'food', 'point_of_interest', 'establishment']",4.5,86,"Unit D, Worsley Bridge Road","51.4452, -0.0209",51.4255948,-0.0322499
Sema's Cafe,"51.43878720000001, -0.0333379",ChIJXcm6CiUCdkgRQjo5Urxb9BA,"['cafe', 'meal_takeaway', 'restaurant', 'food', 'store', 'point_of_interest', 'establishment']",4.7,201,"Saint Georges Parade, Perry Hill, London","51.4452, -0.0209",51.43878720000001,-0.0333379
Chefs Delight,"51.4262618, -0.05103079999999999",ChIJNZNZ0H4BdkgRblDRPC5idc8,"['cafe', 'restaurant', 'food', 'point_of_interest', 'establishment']",4.5,401,"69 Sydenham Road, London","51.4452, -0.0209",51.4262618,-0.0510307999999999
Parkside Cafe,"51.454005, -0.062735",ChIJJ19D5rgDdkgRhkTd_njStfQ,"['cafe', 'food', 'point_of_interest', 'establishment']",4.6,149,"12 Forest Hill Road, London","51.4452, -0.0209",51.454005,-0.062735
Costa Coffee,"51.44520300000001, -0.021762",ChIJOdUCQRYCdkgRKx5l8kGogX8,"['cafe', 'food', 'store', 'point_of_interest', 'establishment']",4.1,414,"14 - 15 Catford Broadway, London","51.4452, -0.0209",51.44520300000001,-0.021762
Costa Coffee,"51.447322, -0.018122",ChIJZ1fdBBQCdkgRhnl1AwRFDbI,"['cafe', 'food', 'store', 'point_of_interest', 'establishment']",4.3,365,"103, 105 Rushey Green, London","51.4452, -0.0209",51.447322,-0.018122
Nes's Cafe,"51.4500797, -0.0173503",ChIJrz7TZBMCdkgRmLxgi1BG_rc,"['cafe', 'food', 'point_of_interest', 'establishment']",4.8,93,"18 Rushey Green, London","51.4452, -0.0209",51.4500797,-0.0173503
Good Hope Cafe,"51.4553097, -0.0195469",ChIJqexGu2sCdkgR4jwoIjFKOUo,"['cafe', 'food', 'point_of_interest', 'establishment']",4.4,130,"Ladywell Fields, Ladywell Road, London","51.4452, -0.0209",51.4553097,-0.0195469
PLACE/Ladywell,"51.4565417, -0.0137164",ChIJA9X72m0CdkgRp6HAnloKEM4,"['cafe', 'food', 'point_of_interest', 'establishment']",4.5,45,"261 Lewisham High Street, London","51.4452, -0.0209",51.4565417,-0.0137164
ODEON Wimbledon,"51.4198702, -0.2048484",ChIJA_jO-LkIdkgR_g-lQLTjVaI,"['movie_theater', 'cafe', 'food', 'store', 'point_of_interest', 'establishment']",4.1,3374,"39 The Broadway, The Crescent, London","51.4014, -0.1958",51.4198702,-0.2048484
Tooting Leisure Centre,"51.4291799, -0.173911",ChIJY-3mSQgGdkgRBoyXGJsWzE4,"['cafe', 'gym', 'health', 'food', 'point_of_interest', 'establishment']",3.7,547,"Greaves Place, London","51.4014, -0.1958",51.4291799,-0.173911
Asda Sutton Superstore,"51.36784899999999, -0.19524",ChIJLWiUWwwIdkgR7muHEgZ1uuY,"['supermarket', 'atm', 'grocery_or_supermarket', 'cafe', 'pharmacy', 'clothing_store', 'health', 'finance', 'food', 'store', 'point_of_interest', 'establishment']",3.7,533,"Saint Nicholas Way, Sutton","51.4014, -0.1958",51.36784899999999,-0.19524
The Terrace Wimbledon,"51.42095399999999, -0.205576",ChIJOefptrAIdkgRhBKcsjYQvEc,"['bar', 'night_club', 'cafe', 'restaurant', 'food', 'point_of_interest', 'establishment']",2.9,76,"Centre Court Shopping Centre, 4 Queen's Road, London","51.4014, -0.1958",51.42095399999999,-0.205576
David Weir Leisure Centre,"51.38414059999999, -0.1813958",ChIJecUJs80HdkgRz-l70EvENTI,"['gym', 'cafe', 'health', 'food', 'point_of_interest', 'establishment']",4.2,307,"Middleton Road, Carshalton","51.4014, -0.1958",51.38414059999999,-0.1813958
Caffè Nero,"51.4204569, -0.2046726",ChIJjeS8qrAIdkgRMJ5MCcaUWXw,"['cafe', 'food', 'store', 'point_of_interest', 'establishment']",4.0,606,"6 The Broadway, London","51.4014, -0.1958",51.4204569,-0.2046726
Caffè Nero,"51.36110559999999, -0.1918286",ChIJbSNVFQkIdkgRYeLaqxil9lA,"['cafe', 'restaurant', 'food', 'store', 'point_of_interest', 'establishment']",4.2,709,"Unit 1, Old House Inn, 2 Carshalton Road, Sutton","51.4014, -0.1958",51.36110559999999,-0.1918286
Wimbledon Guild,"51.42013559999999, -0.2107267",ChIJy-C0ALgIdkgRu7TgS9ZnQ14,"['cafe', 'food', 'point_of_interest', 'establishment']",4.3,67,"Guild House, 30-32 Worple Road, London","51.4014, -0.1958",51.42013559999999,-0.2107267
Lime & Thyme,"51.4095306, -0.2312848",ChIJRxWfnuAIdkgR4AW4M5GKFMM,"['cafe', 'restaurant', 'food', 'point_of_interest', 'establishment']",4.5,737,"56 Coombe Lane, London","51.4014, -0.1958",51.4095306,-0.2312848
Bill's Wimbledon Restaurant,"51.4196726, -0.2051368",ChIJ-UPH97kIdkgRB40ehyBjmZQ,"['cafe', 'restaurant', 'food', 'point_of_interest', 'establishment']",4.3,1803,"20 Hartfield Road, London","51.4014, -0.1958",51.4196726,-0.2051368
Haydons Cafe London,"51.4270986, -0.1905921",ChIJuwqzyqsIdkgRpoz1ON1_2iE,"['cafe', 'food', 'point_of_interest', 'establishment']",4.5,109,"341 Haydons Road, London","51.4014, -0.1958",51.4270986,-0.1905921
Green Lane Kebab,"51.38982129999999, -0.1965553",ChIJ4b2blYcIdkgRN7q5OhZUlsw,"['cafe', 'restaurant', 'food', 'point_of_interest', 'establishment']",3.5,47,"135 Green Lane, Morden","51.4014, -0.1958",51.38982129999999,-0.1965553
Peabodys Coffee,"51.42708570000001, -0.1745464",ChIJ0zENkQgGdkgRm-DCZtG-hBs,"['cafe', 'food', 'store', 'point_of_interest', 'establishment']",3.1,58,"17 Cranmer Terrace, London","51.4014, -0.1958",51.42708570000001,-0.1745464
Fellow Foodies,"51.4019078, -0.1955118",ChIJK5C2B5sIdkgRPYxzYAJTH_c,"['cafe', 'food', 'store', 'point_of_interest', 'establishment']",,0,"8 Crown Lane, Morden","51.4014, -0.1958",51.4019078,-0.1955118
Potting Shed Cafe,"51.401595, -0.1890944",ChIJqYE3dJ0IdkgRsz47R9F0_ok,"['cafe', 'food', 'point_of_interest', 'establishment']",4.0,205,"21 Morden Hall Road, Morden","51.4014, -0.1958",51.401595,-0.1890944
River Side Cafe,"51.3986135, -0.178161",ChIJ04a8nC8GdkgRyd31KEYNwqM,"['cafe', 'food', 'point_of_interest', 'establishment']",4.3,74,"Ravensbury Lane Ravensbury Park Surrey, Morden Road, Mitcham","51.4014, -0.1958",51.3986135,-0.178161
Shell,"51.4035569, -0.21375",ChIJuxKjy-wIdkgRpi159ICyBpg,"['gas_station', 'car_wash', 'meal_delivery', 'convenience_store', 'cafe', 'restaurant', 'food', 'store', 'point_of_interest', 'establishment']",4.1,128,"262 Martin Way, London","51.4014, -0.1958",51.4035569,-0.21375
Asda Isle of Dogs Superstore,"51.494393, -0.01185",ChIJybbuY70CdkgRUHsmvZmOFzc,"['supermarket', 'gas_station', 'atm', 'grocery_or_supermarket', 'cafe', 'clothing_store', 'store', 'health', 'finance', 'food', 'point_of_interest', 'establishment']",3.3,1097,"151 East Ferry Road, London","51.5077, 0.0469",51.494393,-0.01185
Hazev Restaurant Canary Wharf,"51.50152689999999, -0.0192563",ChIJLXBTwcgCdkgR5FgC61B3ZT0,"['restaurant', 'cafe', 'bar', 'store', 'food', 'point_of_interest', 'establishment']",4.1,2136,"Discovery Dock Apartments West, 2 South Quay Square, London","51.5077, 0.0469",51.50152689999999,-0.0192563
Obicà,"51.50263820000001, -0.0202284",ChIJu3FPl7kCdkgRtMYFqqT6UY0,"['cafe', 'bar', 'restaurant', 'food', 'point_of_interest', 'establishment']",4.0,889,"Unit 1, 35 Bank Street, London","51.5077, 0.0469",51.50263820000001,-0.0202284
The Pantry Cafe,"51.5383805, -0.0011377",ChIJoz22NWAddkgRh0HB_La4szg,"['cafe', 'meal_takeaway', 'restaurant', 'food', 'point_of_interest', 'establishment']",4.3,33,"357 High Street, London","51.5077, 0.0469",51.5383805,-0.0011377
Brera,"51.50514709999999, -0.0221038",ChIJNwQDkrcCdkgRerSoP50cAmA,"['cafe', 'store', 'restaurant', 'food', 'point_of_interest', 'establishment']",3.8,1212,"Unit 12, 15 Cabot Square, London","51.5077, 0.0469",51.50514709999999,-0.0221038
Excel Cafe,"51.5109753, 0.0255389",ChIJmTLoknSo2EcRHzYRYVAE7j4,"['cafe', 'food', 'point_of_interest', 'establishment']",3.7,44,"27 Freemasons Road, London","51.5077, 0.0469",51.5109753,0.0255389
Caffè Nero,"51.5039858, 0.04981919999999999",ChIJ6YpqxIio2EcRVni6XBMBMw0,"['cafe', 'store', 'food', 'point_of_interest', 'establishment']",3.6,42,"City Airport Airside, London","51.5077, 0.0469",51.5039858,0.0498191999999999
Costa Coffee London City Airport,"51.5033146, 0.04941129999999999",ChIJCXdzbIio2EcRqujBaCOBc58,"['cafe', 'store', 'food', 'point_of_interest', 'establishment']",4.0,116,"Costa at DLR Station London City Airport King George V Dock, London","51.5077, 0.0469",51.5033146,0.0494112999999999
Cafe Bonnane,"51.5022324, 0.0374454",ChIJu6FcD2Wo2EcRA42HqMy1oHs,"['cafe', 'restaurant', 'food', 'point_of_interest', 'establishment']",4.3,285,"14 Booth Road, London","51.5077, 0.0469",51.5022324,0.0374454
Starbucks Royal Wharf,"51.5018187, 0.0310678",ChIJaT-R9W6o2EcRSvDjYfrn94s,"['cafe', 'store', 'restaurant', 'food', 'point_of_interest', 'establishment']",4.1,550,"5 Halyard Place, London","51.5077, 0.0469",51.5018187,0.0310678
Costa Coffee Ilford 1,"51.5602045, 0.0724103",ChIJN3JLI4um2EcR5iZqsLpa0Z0,"['cafe', 'food', 'store', 'point_of_interest', 'establishment']",4.0,575,"Unit 75, The Exchange Shopping Centre, Ilford","51.559, 0.0741",51.5602045,0.0724103
Belgique Wanstead Cafe,"51.575069, 0.026112",ChIJPwudVBSn2EcRhzNBCvR7L5A,"['cafe', 'bakery', 'meal_takeaway', 'restaurant', 'food', 'store', 'point_of_interest', 'establishment']",3.6,376,"29 Cambridge Park, London","51.559, 0.0741",51.575069,0.026112
The Larder,"51.5792135, 0.0253101",ChIJDTQSkj-n2EcRc1kh3WfRaVs,"['cafe', 'bar', 'restaurant', 'food', 'store', 'point_of_interest', 'establishment']",4.2,391,"39 High Street, London","51.559, 0.0741",51.5792135,0.0253101
Costa Coffee Express,"51.5757285, 0.0463235",ChIJj8ufMh6n2EcR662cdmhBX20,"['cafe', 'food', 'store', 'point_of_interest', 'establishment']",4.1,16,"Studley Drive, Ilford","51.559, 0.0741",51.5757285,0.0463235
Shell,"51.537647, 0.07150800000000002",ChIJqSBDEGum2EcR6tHzyCyhR7Y,"['gas_station', 'cafe', 'meal_delivery', 'convenience_store', 'restaurant', 'food', 'store', 'point_of_interest', 'establishment']",4.0,111,"London Road, Barking","51.559, 0.0741",51.537647,0.071508
Eclipse Ilford,"51.5617152, 0.06915639999999999",ChIJM0ZzmPSm2EcRBEPij_qryKE,"['store', 'cafe', 'restaurant', 'food', 'point_of_interest', 'establishment']",4.1,11,"104-106 Cranbrook Road, Ilford, London","51.559, 0.0741",51.5617152,0.0691563999999999
Maison Fraise Patisserie,"51.589674, 0.08185400000000001",ChIJM5f4DrCm2EcRnYa2b1HfH7E,"['cafe', 'bakery', 'food', 'store', 'point_of_interest', 'establishment']",4.4,30,"50 High Street, Ilford","51.559, 0.0741",51.589674,0.081854
Creams Cafe Ilford,"51.5591394, 0.07269529999999999",ChIJy4j-74qm2EcRGNpa431dFWc,"['cafe', 'bakery', 'meal_takeaway', 'restaurant', 'food', 'store', 'point_of_interest', 'establishment']",3.3,571,"114 High Road, Ilford","51.559, 0.0741",51.5591394,0.0726952999999999
Starbucks Coffee,"51.55858199999999, 0.07182120000000002",ChIJEd8EwYqm2EcRJjyogO7SWAw,"['cafe', 'restaurant', 'food', 'store', 'point_of_interest', 'establishment']",3.8,819,"88 High Road, Ilford","51.559, 0.0741",51.55858199999999,0.0718212
Grounded Coffee,"51.557503, 0.0728138",ChIJ8_Lsm4qm2EcRGM-EMCaSo74,"['cafe', 'food', 'store', 'point_of_interest', 'establishment']",4.7,14,"Clements Road, Ilford","51.559, 0.0741",51.557503,0.0728138
Costa Coffee,"51.5593427, 0.07046160000000003",ChIJ12YzRlqn2EcR3A5TYvd05wI,"['cafe', 'food', 'store', 'point_of_interest', 'establishment']",4.0,933,"24 Cranbrook Road, Ilford","51.559, 0.0741",51.5593427,0.0704616
Coffeelink Ltd,"51.55891459999999, 0.06987230000000001",ChIJYcRuMPWm2EcRd-XRa1AwQcc,"['cafe', 'food', 'store', 'point_of_interest', 'establishment']",4.6,55,"Cranbrook Road, Ilford","51.559, 0.0741",51.55891459999999,0.0698723
Coffee Bar Solution,"51.5607447, 0.08339059999999998",ChIJF3AiPIam2EcR-KN2CZY0Juo,"['cafe', 'food', 'store', 'point_of_interest', 'establishment']",,0,"344, 348 High Road, Ilford","51.559, 0.0741",51.5607447,0.0833905999999999
Aladdins,"51.5610623, 0.08437219999999998",ChIJf4ErFoam2EcRreA26_Sdh-Y,"['cafe', 'night_club', 'bar', 'restaurant', 'food', 'store', 'point_of_interest', 'establishment']",4.1,535,"374 High Road, Ilford","51.559, 0.0741",51.5610623,0.0843721999999999
BAZA Lounge,"51.5649071, 0.0831798",ChIJHaZ6nYWm2EcRx-iyKItElTQ,"['cafe', 'night_club', 'bar', 'restaurant', 'food', 'point_of_interest', 'establishment']",4.2,301,"361 Ley Street, Ilford","51.559, 0.0741",51.5649071,0.0831798
Wild Bean Cafe,"51.57417109999999, 0.08551729999999998",ChIJVZb9WJem2EcRla_onRq5eyg,"['cafe', 'convenience_store', 'food', 'store', 'point_of_interest', 'establishment']",3.0,5,"709 Eastern Avenue, Ilford","51.559, 0.0741",51.57417109999999,0.0855172999999999
Creams Cafe Gants Hill,"51.5759246, 0.0658648",ChIJPzpUNuqm2EcRavk1UJjThpk,"['cafe', 'bakery', 'meal_takeaway', 'restaurant', 'food', 'store', 'point_of_interest', 'establishment']",3.4,897,"549 Cranbrook Road, Ilford","51.559, 0.0741",51.5759246,0.0658648
Costa Coffee,"51.5392638, 0.08158839999999999",ChIJwYdchW2m2EcRBp_sozX_MkI,"['cafe', 'food', 'store', 'point_of_interest', 'establishment']",3.9,687,"62-64 Station Parade, Barking","51.559, 0.0741",51.5392638,0.0815883999999999
Wanstead Tea Hut,"51.56584140000001, 0.04156290000000001",ChIJoWxtZAOn2EcRpGA78aECnUM,"['cafe', 'food', 'point_of_interest', 'establishment']",4.6,333,"Wanstead Park Avenue, London","51.559, 0.0741",51.56584140000001,0.0415629
Caffe Latte,"51.53770429999999, 0.080384",ChIJZc1bEW2m2EcRwDOBRHbKGSM,"['cafe', 'food', 'point_of_interest', 'establishment']",4.0,208,"2, The Vicarage Field Shopping Centre, Ripple Road, Barking","51.559, 0.0741",51.53770429999999,0.080384
Old Deer Park Sports Grounds,"51.46879569999999, -0.2952569",ChIJYyPrTjIMdkgRYBqBQgaXFcE,"['cafe', 'bar', 'food', 'point_of_interest', 'establishment']",4.5,367,"187 Kew Road, Richmond","51.4479, -0.326",51.46879569999999,-0.2952569
Richmond Hill Bakery,"51.4554742, -0.2964462999999999",ChIJf2e1XjwMdkgRsH8lu5br1b8,"['bakery', 'cafe', 'store', 'food', 'point_of_interest', 'establishment']",4.3,335,"54 Friars Stile Road, Richmond","51.4479, -0.326",51.4554742,-0.2964462999999999
Caffè Nero,"51.4648632, -0.2663235",ChIJ0e_s944OdkgReH3-c028zfU,"['cafe', 'store', 'food', 'point_of_interest', 'establishment']",4.4,187,"248 Upper Richmond Road West, London","51.4479, -0.326",51.4648632,-0.2663235
ODEON Surrey Quays,"51.4959322, -0.0447721",ChIJGTY0qN8CdkgR5fzIXjzgJsY,"['movie_theater', 'cafe', 'food', 'store', 'point_of_interest', 'establishment']",3.9,2959,"Surrey Quays Leisure Park, Redriff Road, London","51.5035, -0.0804",51.4959322,-0.0447721
Costa Coffee,"51.3227081, -0.201561",ChIJ3V_1-MbidUgRKnza7RnyTpo,"['cafe', 'point_of_interest', 'food', 'store', 'establishment']",4.0,316,"61 High Street, Banstead","51.3618, -0.1945",51.3227081,-0.201561
Flittons Nursery,"51.3417749, -0.1522915",ChIJsQCnomT9dUgRbpaOxqHGFws,"['cafe', 'point_of_interest', 'food', 'store', 'establishment']",4.4,122,"51 Woodmansterne Lane, Wallington","51.3618, -0.1945",51.3417749,-0.1522915
Caffé Kiko,"51.3648995, -0.1945383",ChIJ3-SZZwwIdkgR_4phuZcAWvI,"['cafe', 'restaurant', 'point_of_interest', 'food', 'store', 'establishment']",4.1,302,"Saint Nicholas Way, Sutton","51.3618, -0.1945",51.3648995,-0.1945383
Sunshine Cafe,"51.3722396, -0.1673275",ChIJz0JFS8EHdkgRl5cZijpgKfw,"['cafe', 'restaurant', 'point_of_interest', 'food', 'store', 'establishment']",4.3,160,"10 Green Wrythe Lane, Carshalton","51.3618, -0.1945",51.3722396,-0.1673275
Esquires Coffee Sutton,"51.3641762, -0.1944799",ChIJ3-SZZwwIdkgRCwsQ98WNxFQ,"['cafe', 'point_of_interest', 'food', 'store', 'establishment']",3.7,186,"St Nicholas Shopping Centre, Saint Nicholas Way, Surrey","51.3618, -0.1945",51.3641762,-0.1944799
Wallington Garden Cafe,"51.3577778, -0.1508333",ChIJZ7rgqZoHdkgRh59XESRXBXE,"['cafe', 'point_of_interest', 'food', 'establishment']",4.1,92,"Shotfield, Wallington","51.3618, -0.1945",51.3577778,-0.1508333
Tim's Cafe,"51.366647, -0.194299",ChIJjxNEwAwIdkgRvz0uvXK9PCE,"['cafe', 'point_of_interest', 'food', 'establishment']",4.6,267,"222 High Street, Sutton","51.3618, -0.1945",51.366647,-0.194299
bp,"51.36492149999999, -0.2140791",ChIJ86-o_D4IdkgRoCuRpKIaTuc,"['gas_station', 'atm', 'car_wash', 'cafe', 'finance', 'point_of_interest', 'food', 'establishment']",2.0,22,"95 Saint Dunstan's Hill, Sutton","51.3618, -0.1945",51.36492149999999,-0.2140791
Mad Coffee Bar,"51.3654159, -0.186392",ChIJy2liMuAHdkgRUddkgpoIOyo,"['cafe', 'bar', 'restaurant', 'point_of_interest', 'food', 'store', 'establishment']",4.7,487,"61 Lind Road, Sutton","51.3618, -0.1945",51.3654159,-0.186392
